Flag,Name,Latitude,Longitude,Diameter,FT,NameOrigin,IAU_ID
x,Abbe,-57.58,174.77,63.98,AA,"Ernst Karl; German optician, physicist, astronomer (1840-1905).",9
x,Abbot,5.56,54.74,10.4,AA,Charles Greeley; American astrophysicist (1872-1973).,10
x,Abel,-34.63,85.78,137.35,AA,Niels Henrik; Norwegian mathematician (1802-1829).,12
x,Abenezra,-20.99,11.89,43.19,AA,"Abraham ben Meir Ibn Ezra; Spanish mathematician, astronomer (1092-1164/1167).",14
x,Abetti,20.11,27.82,1.6,AA,Antonio; Italian astronomer (1846-1928); Giorgio; Italian astronomer (1882-1982).,16
x,Abulfeda,-13.87,13.91,62.23,AA,Ismail Ibn Abu al-Fida; Syrian geographer (1273-1331).,23
x,Abul Wáfa,0.96,116.63,54.18,AA,"Abu al-Wafa al-Buzajani; Persian mathematician, astronomer (940-998).",22
x,Acosta,-5.65,60.14,13.06,AA,"Cristobal; Portuguese doctor, natural historian (1515-1580).",40
x,Adams,-31.89,68.39,63.27,AA,John Couch; British astronomer (1819-1892); Charles Hitchcock; American astronomer (1868-1951); Walter Sydney; American astronomer (1876-1956).,47
x,Aepinus,87.96,-109.69,16.74,AA,Franz Maria Ulrich Theodor Hoch; German-Russian astronomer (1724-1802).,14523
x,Agatharchides,-19.85,-31.11,51.98,AA,Agatharchides of Cnidos; Greek geographer (c. 116 B.C.).,82
x,Agrippa,4.1,10.47,43.75,AA,Greek astronomer (unkn-fl. A.D. 92).,92
x,Airy,-18.14,5.61,38.9,AA,George Biddell; British astronomer (1801-1892).,113
x,Aitken,-16.44,172.96,129.69,AA,Robert Grant; American astronomer (1864-1951).,119
x,Akis,20.01,-31.76,2.28,AA,Greek female name.,133
x,Alan,-10.93,-6.17,1.44,AA,Irish male name.,156
x,Al-Bakri,14.34,20.25,12.21,AA,Abu Ubayd Abdallah Ibn abd al-Aziz Ibn Muhammad; Spanish-Arab geographer (1010-1094).,145
x,Albategnius,-11.24,4.01,130.84,AA,"Muhammed Ben Geber Al-Battani; Arab astronomer, mathematician (c. 858-929).",162
,Albert,38.3,-35,0.1,AA,Male name of German origin (Lunokhod-1 landing site feature).,15003
x,Al-Biruni,18.07,92.62,80.41,AA,"Abu ar-Rayhan Muhammad ibn Ahmad al-Biruni; Persian astronomer, mathematician, geographer (973-1048).",146
x,Alden,-23.51,111.11,111.44,AA,Harold Lee; American astronomer (1890-1964).,170
x,Alder,-48.63,-177.88,82.12,AA,Kurt; German organic chemist; Nobel laureate (1902-1958).,171
x,Aldrin,1.41,22.09,2.8,AA,"Edwin Eugene, Jr. (""Buzz""); American astronaut (1930-Live).",172
x,Alekhin,-67.94,-131.85,74.82,AA,"Nikolaj Pavlovich; Soviet rocket designer, engineer (1913-1964).",174
x,Alexander,40.25,13.69,94.8,AA,"Alexander the Great, of Macedon; Greek geographer (356-323 B.C.).",177
x,Alfraganus,-5.42,18.97,20.52,AA,"Al-Fargani, Abu'l-'Abbas Ahmad Ibn Muhammad Ibn Kathir; Persian astronomer (unkn-c. 840).",181
x,Alhazen,15.91,71.83,34.65,AA,Abu Ali Al-Hasan Ibn Al Haitham; Iraqi mathematician (987-1038).,183
x,Aliacensis,-30.6,5.13,79.65,AA,"D'Ailly, Pierre; French geographer (1350-1420).",185
x,Al-Khwarizmi,7.02,107.01,56.25,AA,Abu Ja'far Muhammad Ibn Musa; Iraqi mathematician (unkn-after 847).,149
x,Almanon,-16.85,15.14,47.76,AA,Abdalla Al Mamun; Persian astronomer (786-833).,196
x,Al-Marrakushi,-10.45,55.77,8.57,AA,"Abu `Ali al-Hasan Ibn `Ali al-Marrakushi; Moroccan astronomer, mathematician (fl. c. A.D. 1281/1282).",150
x,Aloha,29.79,-53.88,2.55,AA,Hawaiian female first name.,199
x,Alpetragius,-16.05,-4.51,40.02,AA,"Al-Bitruji Al-Ishbili, Abu Ishaq; Spanish astronomer (unkn-c. 1100).",202
x,Alphonsus,-13.39,-2.85,110.54,AA,Alfonso X (El Sabio); Spanish astronomer (1221-1284).,206
x,Alter,18.74,-107.8,64.73,AA,"Dinsmore; American astronomer, meteorologist (1888-1968).",208
x,Ameghino,3.3,57.04,9.2,AA,Fiorino (or Florentino); Argentine paleontologist and anthropologist (1854-1911).,223
x,Amici,-10.06,-172.23,52.03,AA,"Giovanni Battista; Italian astronomer, optician (1786-1863).",232
x,Ammonius,-8.52,-0.83,8.55,AA,Greek philosopher (unkn.-c. A.D. 517-526).,236
x,Amontons,-5.34,46.78,2.47,AA,Guillaume; French physicist (1663-1705).,240
x,Amundsen,-84.44,83.07,103.39,AA,Roald Engelbregt Gravning; Norwegian explorer (1872-1928).,247
x,Anaxagoras,73.48,-10.17,51.9,AA,Greek astronomer (500-428 B.C.).,252
x,Anaximander,66.97,-51.44,68.71,AA,Greek astronomer (c. 611-547 B.C.).,254
x,Anaximenes,72.49,-44.98,81.12,AA,Greek astronomer (585-528 B.C.).,255
x,Andel,-10.41,12.38,32.93,AA,Karel; Czechoslovakian astronomer (1884-1948).,267
x,Anders,-41.31,-143.3,41.33,AA,William Alison; American astronaut (1933-Live).,259
x,Anderson,15.5,170.79,105.33,AA,John August; American astronomer (1876-1959).,260
x,Andersson,-49.95,-95.46,13.42,AA,Leif Erland; American astronomer (1943-1979).,261
x,Andronov,-22.68,146.11,16.57,AA,Aleksandr Aleksandrovich; Soviet physicist (1901-1952).,265
x,Ango,20.48,-32.34,0.87,AA,African male name.,269
x,Angström,29.9,-41.67,9.55,AA,Anders Jonas; Swedish physicist (1814-1874).,272
x,Ann,25.11,-0.05,2.12,AA,Hebrew female name.,280
x,Annegrit,29.43,-25.64,1.29,AA,German female name.,283
x,Ansgarius,-12.92,79.72,91.42,AA,St. Ansgar; German theologian (801-864).,289
x,Antoniadi,-69.3,-173.06,137.92,AA,Eugène Michael; Turkish-born French astronomer (1870-1944).,296
x,Anuchin,-48.85,101.66,62.14,AA,Dimitrii Nikolaevich; Russian geographer (1843-1923).,304
x,Anville,1.84,49.51,10.26,AA,Jean-Baptiste Bourguignon; French cartographer (1697-1782).,307
x,Apennine Front,25.9,3.7,6,LF,"Astronaut-named feature, Apollo 15 site.",314
x,Apianus,-26.96,7.87,63.44,AA,"Bienewitz, Peter; German mathematician, astronomer (1495-1552).",320
x,Apollo,-35.69,-151.48,524.23,AA,Named to honor Apollo missions.,326
x,Apollonius,4.51,60.96,50.66,AA,Apollonius of Perga; Greek mathematician (c. 262-190 B.C.).,328
x,Appleton,37.05,158.17,64.59,AA,Sir Edward Victor; British physicist; Nobel laureate (1892-1965).,330
x,Arago,6.15,21.43,25.51,AA,Dominique Francois Jean; French astronomer (1786-1853).,337
x,Aratus,23.58,4.51,10.23,AA,Aratus of Soli; Greek astronomer (c. 310-240/239 B.C.).,344
x,Archimedes,29.72,-3.99,81.04,AA,"Greek physicist, mathematician (c. 287-212 B.C.).",350
x,Archytas,58.87,4.99,31.95,AA,Greek mathematician (428-347 B.C. ?).,351
x,Argelander,-16.55,5.8,33.72,AA,Friedrich Wilhelm August; German astronomer (1799-1875).,363
x,Ariadaeus,4.55,17.28,10.4,AA,Philip III of Macedonia; chronologer (c. 358-317 B.C.).,373
x,Aristarchus,23.73,-47.49,39.99,AA,Greek astronomer (310-230 B.C. ?).,380
x,Aristillus,33.88,1.21,54.37,AA,Greek astronomer (fl. c. 280 B.C.).,381
x,Aristoteles,50.24,17.32,87.57,AA,"Greek astronomer, philosopher (383-322 B.C.).",382
x,Arminski,-16.36,154.22,26.76,AA,Franciszek; Polish astronomer (1789-1848). (Spelling changed from Armínski.),385
x,Armstrong,1.35,24.94,4.21,AA,Neil Alden; American astronaut (1930-Live).,386
x,Arnold,66.98,35.83,93.13,AA,Christoph; German astronomer (1650-1695).,387
x,Arrhenius,-55.58,-91.45,40.93,AA,Svante August; Swedish chemist; Nobel laureate (1859-1927).,391
x,Artamonov,25.44,103.79,62.45,AA,Nikolaj N.; Soviet rocket scientist (1906-1965).,398
x,Artem'ev,10.4,-145.22,66.39,AA,Vladimir Andreevich; Soviet rocket scientist (1885-1962).,402
x,Artemis,25.03,-25.36,2.28,AA,"Greek female first name. Note: Origin information changed 6/30/2010. Previous origin information was ""Greek Moon goddess.""",399
x,Artsimovich,27.61,-36.63,7.96,AA,Lev Andreevich; Soviet physicist (1909-1973).,405
x,Aryabhata,6.2,35.17,21.89,AA,"Aryabhata I; Indian astronomer, mathematician (476-c.550).",411
x,Arzachel,-18.26,-1.93,96.99,AA,Al-Zarqali; Spanish-Arabic astronomer (died 1100).,412
x,Asada,7.25,49.9,12.37,AA,Goryu; Japanese astronomer (1734-1799).,413
x,Asclepi,-55.19,25.52,40.56,AA,Giuseppe Maria; Italian astronomer (1706-1776).,414
x,Ashbrook,-81.1,-110.58,157.68,AA,Joseph; American astronomer (1918-1980). Note: Formerly Drygalski Q,422
x,Aston,32.77,-87.68,44.48,AA,"Francis William; British chemist, physicist; Nobel laureate (1877-1945).",440
x,Atlas,46.74,44.38,88.12,AA,Mythological Greek Titan.,458
x,Atwood,-5.88,57.78,28.64,AA,"George; British mathematician, physicist (1746-1807).",466
x,Autolycus,30.68,1.49,38.88,AA,Autolycus of Pitane; Greek astronomer (fl. c. 310 B.C.).,493
x,Auwers,15,17.12,19.64,AA,Georg Friedrich Julius Arthur; German astronomer (1838-1915).,495
x,Auzout,10.21,64.01,32.92,AA,"Adrien; French astronomer, physicist (1622-1691).",497
x,Avery,-1.32,81.37,10.73,AA,Oswald Theodore; Canadian doctor (1877-1955).,507
x,Avicenna,39.63,-97.28,72.99,AA,Abu Ali Al-Hussein Ibn Abdallah; Persian doctor (980-1037).,509
x,Avogadro,63.21,165.36,129.84,AA,Amedeo (Conte Di Quarengna); Italian physicist (1776-1856).,510
x,Azophi,-22.19,12.7,47.54,AA,"Al-Sufi, Abderrahman; Persian astronomer (903-986).",524
x,Baade,-44.75,-82.03,57.85,AA,Wilhelm Heinrich Walter; American astronomer (1893-1960).,529
x,Babakin,-20.81,123.26,19.15,AA,Georgii Nikolaevich; Soviet space scientist (1914-1971).,531
x,Babbage,59.56,-57.38,146.56,AA,Charles; British mathematician (1792-1871).,533
x,Babcock,4.13,94.14,95.28,AA,"Harold Delos; American astronomer, physicist (1882-1968).",535
x,Baby Ray,-9.1,15.4,0.16,LF,"Astronaut-named feature, Apollo 16 site.",536
x,Back,1.2,80.67,34.63,AA,Ernst Emil Alexander; German physicist (1881-1959).,541
x,Backlund,-16.22,103.35,75.46,AA,Jöns Oskar; Russian astronomer (1846-1916).,542
x,Baco,-51.04,19.1,65.31,AA,"Bacon, Roger; British natural philosopher, optician (c. 1214-c. 1294).",543
x,Baillaud,74.61,37.35,89.44,AA,(Édouard) Benjamin; French astronomer (1848-1934).,560
x,Bailly,-66.82,-68.9,300.56,AA,Jean Sylvain; French astronomer (1736-1793).,561
x,Baily,49.78,30.56,25.68,AA,Francis; British astronomer (1774-1844).,562
x,Balandin,-18.94,152.58,11.81,AA,Aleksey Aleksandrovich; Soviet chemist (1898-1967).,569
x,Balboa,19.24,-83.31,69.19,AA,Vasco Nuñez de; Spanish explorer (1475-1519).,570
x,Baldet,-53.32,-151.96,55.76,AA,Fernand; French astronomer (1885-1964).,574
x,Ball,-35.92,-8.39,40.31,AA,William; British astronomer (unkn-1690).,579
x,Balmer,-20.27,70.22,136.3,AA,"Johann Jakob; Swiss mathematician, physician (1825-1898).",580
x,Banachiewicz,5.28,80.01,99.09,AA,"Tadeusz; Polish astronomer, mathematician (1882-1954).",592
x,Bancroft,28.07,-6.43,12.5,AA,Wilder Dwight; American chemist (1867-1953).,594
x,Banting,26.58,16.43,5.15,AA,Sir Frederick Grant; Canadian doctor; Nobel laureate (1891-1941).,597
x,Barbier,-23.85,157.93,65.38,AA,Daniel; French astronomer (1907-1965).,605
x,Barkla,-10.67,67.22,40.9,AA,Charles Glover; British physicist; Nobel laureate (1877-1944).,606
x,Barnard,-29.79,85.95,115.73,AA,Edward Emerson; American astronomer (1857-1923).,608
x,Barocius,-44.98,16.81,82.72,AA,Francesco; Italian mathematician (1537-1604).,613
x,Barringer,-28.22,-150.43,66.89,AA,"Daniel Moreau; American engineer, geologist (1860-1929).",616
x,Barrow,71.28,7.59,93.82,AA,Isaac; British mathematician (1630-1677).,617
x,Bartels,24.51,-89.85,54.95,AA,Julius; German geophysicist (1899-1964).,621
x,Bawa,-25.28,102.56,1.57,AA,African male name.,644
x,Bayer,-51.62,-35.14,48.51,AA,Johann; German astronomer (1572-1625).,646
x,Beals,37.11,86.58,52.61,AA,Carlyle Smith; Canadian astronomer (1899-1979). Note: Formerly Riemann A,651
x,Bear Mountain,20,30.7,0,LF,"Astronaut-named feature, Apollo 17 site.",652
x,Beaumont,-18.08,28.82,50.69,AA,Jean-Baptiste-Armand-Louis-Léonce Élie de; French geologist (1798-1874).,653
x,Becquerel,40.79,129.5,62.86,AA,Antoine-Henri; French physicist; Nobel laureate (1852-1908).,654
x,Becvár,-2.57,125.07,66.62,AA,Antonin; Czechoslovakian astronomer (1901-1965).,727
x,Beer,27.07,-9.1,9.06,AA,Wilhelm; German astronomer (1797-1850).,658
x,Behaim,-16.61,79.41,56.21,AA,"Martin; German navigator, cartographer (1459-1507).",662
x,Beijerinck,-13.4,151.84,76.77,AA,Martinus Willem; Dutch botanist (1851-1931).,664
x,Beketov,16.23,29.18,8.3,AA,Nikolai Nikolaevich; Russian chemist (1827-1911).,666
x,Béla,24.67,2.27,10.07,AA,"Hungarian male name, also Slovak female name.",947
x,Bel'kovich,61.53,90.15,215.08,AA,Igor V.; Soviet astronomer (1904-1949).,684
x,Bell,21.98,-96.53,86.33,AA,Alexander Graham; Scottish-American inventor (1847-1922).,672
x,Bellinsgauzen (Bellingshausen),-60.72,-164.85,63.23,AA,Faddei Faddeevich; Russian explorer (1778-1852).,674
x,Bellot,-12.48,48.19,17.5,AA,Joseph Rene; French explorer (1826-1853).,677
x,Belopol'skiy,-17.25,-128.23,61.9,AA,Aristarch Apollonovich; Russian astronomer (1854-1934).,679
x,Belyaev,23.1,143.11,55.9,AA,Pavel Ivanovich; Soviet cosmonaut (1925-1970).,682
x,Bench,-3.2,-23.4,0.1,LF,"Astronaut-named feature, Apollo 12 site.",686
x,Benedict,4.35,141.54,13.83,AA,"Francis Gano; American chemist, physiologist (1870-1957).",689
x,Bergman,6.97,137.49,22.51,AA,"Torbern Olof; Swedish chemist, mineralogist, astronomer (1735-1784).",700
x,Bergstrand,-18.72,176.44,42.98,AA,Carl Östen Emanuel; Swedish astronomer (1873-1948).,701
x,Berkner,25.13,-105.24,87.62,AA,Lloyd Viel; American geophysicist (1905-1967).,702
x,Berlage,-63.04,-163.61,93.75,AA,"Hendrik Petrus; Dutch geophysicist, meteorologist (1896-1968).",703
x,Bernoulli,34.93,60.61,47.3,AA,Jacques; Swiss mathematician (1654-1705); Jean; Swiss mathematician (1667-1748). (Spelling changed from Bernouilli.),709
x,Berosus,33.5,69.99,75.24,AA,Berosus the Chaldean; Babylonian astronomer (unkn-c. 250 B.C.).,710
x,Berzelius,36.55,50.95,48.53,AA,Jöns Jacob; Swedish chemist (1779-1848).,716
x,Bessarion,14.85,-37.31,9.84,AA,John; Greek scholar (1403-1472).,719
x,Bessel,21.73,17.92,15.56,AA,Friedrich Wilhelm; German astronomer (1784-1846).,720
x,Bettinus,-63.4,-45.16,71.78,AA,"Mario; Italian mathematician, astronomer (1582-1657).",724
x,Bhabha,-55.5,-165.31,70.25,AA,Homi Jehangir; Indian physicist (1909-1966).,728
x,Bianchini,48.78,-34.37,37.59,AA,Francesco; Italian astronomer (1662-1729).,734
x,Biela,-54.99,51.63,77.03,AA,Wilhelm von; Austrian astronomer (1782-1856).,739
x,Bilharz,-5.83,56.34,44.55,AA,"Theodor; German doctor, zoologist (1825-1862).",745
x,Billy,-13.83,-50.24,45.57,AA,Jacques de; French mathematician (1602-1679).,747
x,Bingham,8.02,115.05,34.99,AA,Hiram; American explorer (1875-1956).,749
x,Biot,-22.7,51.08,13.01,AA,Jean-Baptiste; French astronomer (1774-1862).,750
x,Birkeland,-30.17,174.01,81.64,AA,Olaf Kristian; Norwegian physicist (1867-1917).,752
x,Birkhoff,58.45,-145.65,329.81,AA,George David; American mathematician (1884-1944).,753
x,Birmingham,65.12,-10.7,89.92,AA,John; Irish astronomer (1816-1884).,754
x,Birt,-22.36,-8.59,15.81,AA,William R.; British selenographer (1804-1881).,755
x,Bi Sheng,78.35,148.46,55.27,AA,Chinese inventor (c. 990-1051).,14748
x,Bjerknes,-38.5,113.69,48.18,AA,Vilhelm Friman Koren; Norwegian physicist (1862-1951).,759
x,Black,-9.2,80.39,19.46,AA,Joseph; French chemist (1728-1799).,762
x,Blackett,-37.55,-115.84,145.31,AA,Patrick Maynard Stuart; British physicist; Nobel laureate (1897-1974).,764
x,Blagg,1.22,1.46,4.97,AA,Mary Adela; British astronomer (1858-1944).,765
x,Blancanus,-63.77,-21.63,105.82,AA,"Biancani, Giuseppe; Italian mathematician, astronomer (1566-1624).",767
x,Blanchard,-58.25,-93.5,37.46,AA,Jean-Pierre-François; French aeronaut (1753-1809). Note: Formerly Arrhenius P,768
x,Blanchinus,-25.32,2.44,59.9,AA,"Bianchini, Giovanni; Italian astronomer (unkn-fl. 1458).",770
x,Blazhko,31.37,-147.86,51.11,AA,Sergei Nikolaevich; Soviet astronomer (1870-1956).,773
x,Bliss,53.04,-13.78,22.85,AA,Nathaniel; English Astronomer Royal (1700-1764). Note: Formerly Plato A,776
x,Block,-3.2,-23.4,0.01,LF,"Astronaut-named feature, Apollo 12 site.",779
x,Bobillier,19.63,15.44,6.04,AA,Étienne; French geometer (1798-1840).,786
x,Bobone,26.7,-132.12,32.14,AA,Jorge; Argentinean astronomer (1901-1958).,787
x,Bode,6.71,-2.45,17.8,AA,Johann Elert; German astronomer (1747-1826).,790
x,Boethius,5.57,72.33,11.17,AA,Anicius Manlius Severinus; Roman scholar(c. A.D. 470-524).,793
x,Boguslawsky,-72.9,43.26,94.59,AA,Palm Heinrich Ludwig von; German astronomer (1789-1851).,796
x,Bohnenberger,-16.24,40.06,31.74,AA,Johann Gottlieb Friedrich Von; German astronomer (1765-1831).,797
x,Bohr,12.71,-86.52,70.07,AA,Niels Henrik David; Danish physicist; Nobel laureate (1885-1962).,798
x,Bok,-20.26,-171.58,43.03,AA,"Priscilla Fairfield; American astronomer (1896-1975), Bart Jan; Dutch-American astronomer (1906-1983).",800
x,Boltzmann,-74.82,-90.41,72.31,AA,Ludwig Eduard; Austrian physicist (1844-1906).,805
x,Bolyai,-33.85,126.12,102.22,AA,Janos; Hungarian mathematician (1802-1860).,806
x,Bombelli,5.28,56.19,9.72,AA,Rafael; Italian mathematician (1526-1572).,808
x,Bondarenko,-17.24,136.89,28.26,AA,Valentin Vasilyevich; Soviet student-cosmonaut (1937-1961). Note: Formerly Patsaev G,813
x,Bonpland,-8.38,-17.33,59.25,AA,Aimé-Jacques-Alexandre; French botanist (1773-1858).,817
x,Boole,63.79,-87.29,61.34,AA,George; British mathematician (1815-1864).,818
x,Borda,-25.2,46.52,45.4,AA,Jean Charles de; French astronomer (1733-1799).,820
x,Borel,22.37,26.42,4.66,AA,Félix Édouard Émile; French mathematician (1871-1956).,824
x,Boris,30.53,-33.5,1.73,AA,Russian male name.,826
x,Borman,-39.06,-148.25,50.72,AA,"Frank; American astronaut, engineer (1928-Live).",827
x,Born,-6.05,66.83,15.07,AA,Max; German physicist (1882-1970).,828
,Borya,38.3,-35,0.4,AA,Slavic male name Boris in Russian diminutive form (Lunokhod-1 landing site feature).,15004
x,Bosch,86.82,133.54,19.58,AA,"Carl; German chemist, Nobel Prize winner 1931 (1874-1940).",14524
x,Boscovich,9.71,11.01,41.53,AA,Rudjer J.; Italian physicist (1711-1787).,831
x,Bose,-53.95,-169.36,92.55,AA,"Jagadis Chandra; Indian botanist, physicist (1858-1937).",832
x,Boss,45.75,88.68,50.2,AA,Lewis; American astronomer (1846-1912).,836
x,Bouguer,52.32,-35.82,22.23,AA,Pierre; French hydrographer (1698-1758).,839
x,Boussingault,-70.21,53.73,127.61,AA,Jean Baptiste Dieudonne; French chemist (1802-1887).,844
x,Bowditch,-24.97,103.07,43.04,AA,"Nathaniel; American astronomer, mathematician (1773-1848).",846
x,Bowen,17.63,9.1,8.09,AA,Ira Sprague; American astronomer (1898-1973).,847
x,Bowen-Apollo,20.3,30.9,0.42,LF,"Astronaut-named feature, Apollo 17 site.",848
x,Boyle,-53.29,177.89,57.13,AA,"Robert; British natural philosopher, chemist (1627-1691).",851
x,Brackett,17.84,23.54,8.87,AA,Frederick Sumner; American physicist (1896-1988).,855
x,Bragg,42.33,-103.44,77.21,AA,Sir William Henry; Australian physicist; Nobel laureate (1862-1942).,857
x,Brashear,-73.54,-171.57,60.16,AA,John Alfred; American astronomer (1840-1920).,864
x,Braude,-81.82,158.88,11.28,AA,Semion Ya.; Ukranian radio astronomer (1911-2003).,14564
x,Brayley,20.9,-36.94,14.17,AA,Edward William; British geographer (1801-1870).,866
x,Bredikhin,17.25,-158.37,61.68,AA,Fedor Aleksandrovich; Russian astronomer (1831-1904).,868
x,Breislak,-48.31,18.31,48.64,AA,"Scipione; Italian chemist, geologist, mathematician (1748-1826).",869
x,Brenner,-39.09,39.11,90.01,AA,Leo (Spiridon Gopcevic); Austrian astronomer (1855-1928).,873
x,Brewster,23.27,34.69,9.83,AA,David; Scottish optician (1781-1868).,874
x,Brianchon,74.75,-88.36,137.26,AA,Charles-Julien; French mathematician (1783-1864).,875
x,Bridge,26,3.6,0.71,LF,"Astronaut-named feature, Apollo 15 site.",877
x,Bridgman,43.39,136.98,81.89,AA,Percy Williams; American physicist; Nobel laureate (1882-1961).,880
x,Briggs,26.45,-69.19,36.75,AA,Henry; British mathematician (1561-1630).,881
x,Brisbane,-49.2,68.76,44.32,AA,Sir Thomas Makdougall; Scottish astronomer (1773-1860).,883
x,Bronk,25.9,-134.67,66.16,AA,Detlev Wulf; American neurophysiologist (1897-1975).,887
x,Brontë,20.2,30.7,0.23,LF,"Astronaut-named feature, Apollo 17 site.",889
x,Brouwer,-35.82,-124.75,119.6,AA,Dirk; American astronomer (1902-1966); Luitzen Egbertus Jan; Dutch mathematician (1881-1966).,893
x,Brown,-46.53,-17.99,34.03,AA,"Ernest William; British astronomer, mathematician (1866-1938).",894
x,Bruce,1.16,0.37,6.14,AA,"Catherine Wolfe; American philanthropist, astronomy patron (1816-1900).",897
x,Brunner,-9.86,90.91,50.66,AA,William Otto; Swiss astronomer (1878-1958).,900
x,Buch,-38.9,17.68,51.31,AA,Christian Leopold von; German geologist (1774-1853).,906
x,Buffon,-40.64,-133.53,105.76,AA,Georges Louis Leclerc; French natural historian (1707-1788).,910
x,Buisson,-1.47,112.95,61.27,AA,"Henri; French physicist, astronomer (1873-1944).",913
x,Bullialdus,-20.75,-22.26,60.72,AA,"Boulliau, Ismael; French astronomer (1605-1694).",917
x,Bunsen,41.4,-85.46,55.22,AA,Robert Wilhelm Eberhard; German chemist (1811-1899).,920
x,Burckhardt,31.11,56.39,54.36,AA,Johann Karl; German astronomer (1773-1825).,922
x,Bürg,45.07,28.21,41.04,AA,Johann Tobias; Austrian astronomer (1766-1834).,948
x,Burnham,-13.92,7.25,24.09,AA,Sherburne Wesley; American astronomer (1838-1921).,925
x,Büsching,-38.04,19.96,53.49,AA,Anton Friedrich; German geographer (1724-1793).,949
x,Butlerov,12.05,-108.81,38.77,AA,Aleksandr Mikhailovich; Russian chemist (1828-1886).,934
x,Buys-Ballot,20.86,174.82,66.38,AA,Christoph Hendrik Diederik; Dutch meteorologist (1817-1890).,939
x,Byrd,85.43,10.07,97.49,AA,"Richard Edwin; American explorer, aviator, navigator (1888-1957).",941
x,Byrgius,-24.73,-65.38,84.46,AA,"Burgi, Joost; Swiss horologist (1552-1632).",943
x,Cabannes,-61.24,-170.21,81.3,AA,Jean; French physicist (1885-1959).,952
x,Cabeus,-85.33,-42.13,100.58,AA,"Cabeo, Niccolo; Italian astronomer (1586-1650).",953
x,Cailleux,-60.41,153.5,52.85,AA,Andre; French geologist (1907-1986). Note: Formerly Poincaré R,960
x,Cai Lun,80.12,113.66,44.89,AA,Chinese inventor (c. 57-121).,14749
x,Cajal,12.59,31.08,8.57,AA,Santiago Ramon Y; Spanish doctor; Nobel laureate (1852-1934).,964
x,Cajori,-47.67,168.7,74.65,AA,Florian; American mathematician (1859-1930).,965
x,Calippus,38.92,10.72,34.03,AA,Calippus of Cyzicus; Greek astronomer (c. 370 B.C.). Note: Alternate spelling is Callippus.,972
x,Camelot,20.2,30.7,0.63,LF,"Astronaut-named feature, Apollo 17 site.",984
x,Cameron,6.19,45.93,10.91,AA,Robert Curry; American astronomer (1925-1972).,986
x,Campanus,-28.04,-27.9,46.41,AA,Campanus of Navara; Italian astronomer (c. 1200-1296).,989
x,Campbell,45.57,152.91,222.48,AA,Leon; American astronomer (1881-1951); William Wallace; American astronomer (1862-1938).,990
x,Cannizzaro,55.5,-99.73,54.51,AA,Stanislao; Italian chemist (1826-1910).,1004
x,Cannon,19.88,81.36,57.58,AA,Annie Jump; American astronomer (1863-1941).,1005
x,Cantor,38.04,118.69,75.72,AA,Georg; German mathematician (1845-1918); Moritz; German mathematician (1829-1920).,1008
x,Capella,-7.65,34.92,48.13,AA,Martianus; Roman astronomer (c. A.D. 400-unkn).,1011
x,Capuanus,-34.09,-26.73,59.69,AA,Francesco Capuano Di Manfredonia; Italian astronomer (c. 1400-unkn).,1014
x,Cardanus,13.27,-72.5,49.57,AA,"Cardano, Girolamo; Italian mathematician (1501-1576).",1016
x,Carlini,33.75,-24.12,10.66,AA,Francesco; Italian astronomer (1783-1862).,1018
x,Carlos,24.91,2.28,4.67,AA,Spanish male name.,1019
x,Carmichael,19.53,40.36,19.73,AA,Leonard; American psychologist (1898-1973).,1022
x,Carnot,52.09,-144.2,126.06,AA,Nicolas-Léonard Sadi; French physicist (1796-1832).,1023
x,Carol,8.48,122.37,6.25,AA,Latin female name.,1024
x,Carpenter,69.52,-51.23,59.06,AA,James; British astronomer (1840-1899); Edwin Francis; American astronomer (1898-1963).,1026
x,Carrel,10.67,26.68,15.59,AA,"Alexis; French doctor, physiologist; Nobel laureate (1873-1944).",1029
x,Carrillo,-2.11,80.96,17.85,AA,Flores Nabor; Mexican soil engineer (1911-1967).,1031
x,Carrington,43.97,62.04,27.77,AA,Richard Christopher; British astronomer (1826-1875).,1032
x,Cartan,4.24,59.29,15.62,AA,Elie-Joseph; French mathematician (1869-1951).,1035
x,Carver,-43.46,127.6,62.45,AA,George Washington; American botanist (1864-1943).,1038
x,Casatus,-72.7,-30.75,102.85,AA,"Casati, Paolo; Italian mathematician (1617-1707).",1040
x,Cassegrain,-51.95,113.3,56.66,AA,"Laurent; French astronomer, doctor (1629-1693).",1044
x,Cassini,40.25,4.64,56.88,AA,Giovanni Domenico; Italian-French astronomer (1625-1712); Jacques; French astronomer (1677-1756).,1045
x,Catalán,-45.7,-87.37,26.77,AA,Miguel Antonio; Spanish spectroscopist (1894-1957).,1053
x,Catharina,-17.98,23.55,98.77,AA,"St. Catherine of Alexandria; Greek theologian, philosopher (unkn-c. 307).",1076
x,Cauchy,9.56,38.63,11.8,AA,Augustin Louis; French mathematician (1789-1857).,1081
x,Cavalerius,5.1,-66.93,59.35,AA,"Cavalieri, Buonaventura; Italian mathematician (1598-1647).",1083
x,Cavendish,-24.63,-53.78,52.64,AA,"Henry; British chemist, physicist (1731-1810).",1086
x,Caventou,29.74,-29.38,2.8,AA,"Joseph-Bienaimé; French chemist, pharmacologist (1795-1877).",1087
x,Cayley,3.94,15.09,14.2,AA,"Arthur; British astronomer, mathematician (1821-1895).",1093
x,Celsius,-34.1,20.05,38.96,AA,Anders; Swedish astronomer (1701-1744).,1098
x,Censorinus,-0.42,32.69,4.1,AA,Roman astronomer (fl. A.D. 238).,1099
x,Cepheus,40.68,45.78,39.43,AA,"Mythological astronomer, father of Andromeda.",1102
x,Chacornac,29.88,31.67,50.44,AA,Jean; French astronomer (1823-1873).,1117
x,Chadwick,-52.85,-101.34,29.74,AA,Sir James; British physicist (1891-1974). Note: Formerly De Roy X,1118
x,Chaffee,-39.06,-154.63,51.75,AA,"Roger Bruce; American aeronautic engineer, astronaut (1935-1967).",1120
x,Challis,79.58,9.09,53.21,AA,"James; British astronomer, mathematician, physicist (1803-1882).",1126
x,Chalonge,-20.44,-116.35,25.08,AA,Daniel; French astronomer (1895-1977). Note: Formerly Lewis R,1127
x,Chamberlin,-58.83,96.04,60.41,AA,Thomas Chrowder; American geologist (1843-1928).,1129
x,Champollion,37.39,175.03,48.97,AA,Jean-François; French Egyptologist (1790-1832).,1131
x,Chandler,43.65,171.76,88.6,AA,Seth Carlo; American astronomer (1846-1913).,1132
x,Chang Heng,18.9,112.21,42.65,AA,Chinese astronomer (78-139).,1133
x,Chang-Ngo,-12.69,-2.16,2.34,AA,Chinese female name.,1135
x,Chant,-40.14,-109.46,33.6,AA,"Clarence Augustus; Canadian astronomer, physicist (1865-1956).",1138
x,Chaplygin,-5.76,150.24,123.39,AA,"Sergei Alekseevich; Soviet mathematician, engineer (1869-1942).",1143
x,Chapman,50.09,-100.47,76.83,AA,Sydney; British geophysicist (1888-1970).,1144
x,Chappe,-61.29,-91.24,55.79,AA,"d'Auteroche, Jean-Baptiste; French astronomer (1728-1769). Note: Formerly Hausen A",1145
x,Chappell,54.53,-176.77,73.92,AA,James Frederick; American astronomer (1891-1964).,1146
x,Charles,29.9,-26.37,1.34,AA,French male name.,1151
x,Charlier,36.22,-131.69,109.88,AA,Carl Wilhelm Ludwig; Swedish astronomer (1862-1934).,1153
x,Chaucer,3.39,-140.71,45.48,AA,"Geoffrey; British writer, astronomer (c. 1340-1400).",1163
x,Chauvenet,-11.64,137.2,77.67,AA,"William; American astronomer, mathematician (1820-1870).",1165
x,Chawla,-42.48,-147.49,14.25,AA,"Kalpana; American astronaut, Space Shuttle Columbia Mission Specialist (1961-2003).",14139
x,Chebyshev,-34.01,-132.88,179.05,AA,Pafnuty Lvovich; Russian mathematician (1821-1894).,1167
x,Chernyshev,47.01,174.41,59.31,AA,Nikolaj Gavrilovich; Soviet rocketry engineer (1906-1963).,1173
x,C. Herschel,34.48,-31.29,13.7,AA,Caroline Lucretia; British astronomer (1750-1848).,950
x,Chevallier,45.01,51.57,51.83,AA,Temple; British astronomer (1794-1873).,1176
x,Ching-Te,20.02,29.97,3.7,AA,Chinese male name.,1184
x,Chladni,3.99,1.12,13.07,AA,Ernst Florens Friedrich; German physicist (1756-1827).,1190
x,Chrétien,-46.11,162.99,98.63,AA,"Henri; French mathematician, astronomer (1870-1956).",1206
x,Cichus,-33.29,-21.18,39.18,AA,Francesco Degli Stabili (Cecco D'Ascoli); Italian astronomer (1257-1327).,1214
x,Cinco,-9.1,15.5,0.08,LF,"Astronaut-named feature, Apollo 16 site.",1217
x,Clairaut,-47.84,13.86,76.89,AA,Alexis Claude; French mathematician (1713-1765).,1226
x,Clark,-38.67,119.35,52.11,AA,"Alvan; American astronomer (1804-1887); Alvan G.; American astronomer, optician (1832-1897).",1232
x,Clausius,-36.9,-43.93,24.2,AA,Rudolf Julius Emmanuel; German physicist (1822-1888).,1235
x,Clavius,-58.62,-14.73,230.77,AA,Christopher Klau; German mathematician (1537-1612).,1236
x,Cleomedes,27.6,55.5,130.77,AA,Greek astronomer (unkn-c. 50 B.C.).,1239
x,Cleostratus,60.32,-77.4,63.23,AA,Greek astronomer (unkn-c. 500 B.C.).,1241
x,Clerke,21.68,29.8,6.66,AA,Agnes Mary; British astronomer (1842-1907).,1242
x,C. Mayer,63.26,17.31,37.54,AA,"Christian; German astronomer, mathematician, physicist (1719-1783).",951
x,Coblentz,-38.09,126.65,32.66,AA,"William Weber; American physicist, astronomer (1873-1962).",1256
x,Cochise,20.2,30.8,0.63,LF,"Astronaut-named feature, Apollo 17 site.",1259
x,Cockcroft,31.09,-162.91,92.16,AA,Sir John Douglas; British nuclear physicist; Nobel laureate (1897-1967).,1261
x,Collins,1.3,23.71,2.58,AA,Michael; American astronaut (1930-Live).,1271
x,Colombo,-15.26,46.02,79.02,AA,"Columbus, Christopher; Spanish explorer (1451-1506).",1273
x,Compton,55.86,104.05,164.63,AA,"Arthur Holly; American physicist, Nobel laureate (1892-1962); Karl Taylor; American physicist (1887-1954).",1278
x,Comrie,23.39,-113.17,59.25,AA,Leslie John; British astronomer (1893-1950).,1279
x,Comstock,21.59,-122.05,73.23,AA,George Cary; American astronomer (1855-1934).,1280
x,Condon,1.87,60.36,34.85,AA,Edward Uhler; American physicist (1902-1974).,1285
x,Condorcet,12.1,69.58,74.85,AA,Jean de; French mathematician (1743-1794).,1286
x,Cone,-3.7,-17.4,0.3,LF,"Astronaut-named feature, Apollo 14 site.",1287
x,Congreve,-0.28,-167.84,57.61,AA,"Sir William; British rocket engineer, inventor (1772-1828).",1288
x,Conon,21.66,1.95,20.96,AA,Conon of Samos; Greek astronomer (c. 260 B.C.).,1289
x,Cook,-17.5,48.81,45.16,AA,James; British explorer (1728-1779).,1292
x,Cooper,52.68,175.92,51.87,AA,"John Cobb; American jurist, scholar (1887-1967).",1294
x,Copernicus,9.62,-20.08,96.07,AA,Nicholas; Polish astronomer (1473-1543).,1296
x,Cori,-50.48,-152.91,67.22,AA,Gerty Theresa Radnitz; Czech-American physiologist; Nobel laureate (1896-1957).,1308
x,Coriolis,0.56,171.8,78.56,AA,Gaspard-Gustave de; French physicist (1792-1843).,1313
x,Couder,-4.9,-92.58,18.56,AA,André; French astronomer (1897-1979). Note: Formerly Maunder Z,1322
x,Coulomb,54.46,-115,89.72,AA,Charles-Augustin de; French physicist (1736-1806).,1323
x,Courtney,25.14,-30.81,1.24,AA,English male name.,1325
x,Cremona,67.24,-90.86,85.12,AA,Antonio Luigi Gaudenzio Guiseppe; Italian mathematician (1830-1903).,1329
x,Crescent,-2.9,-23.4,0.6,LF,"Astronaut-named feature, Apollo 12 site.",1330
x,Crile,14.21,45.98,9.3,AA,George Washington; American doctor (1864-1943).,1333
x,Crocco,-46.98,150.51,67.5,AA,Gaetano Arturo; Italian aeronautical engineer (1877-1968).,1336
x,Crommelin,-67.46,-147.95,93.48,AA,Andrew Claude De La Cherois; British astronomer (1865-1939).,1337
x,Crookes,-10.4,-165.1,48.25,AA,"Sir William; British physicist, chemist (1832-1919).",1339
x,Crozier,-13.56,50.72,22.51,AA,Francis Rawdon Moira; British explorer (1796-1848).,1340
x,Crüger,-16.68,-66.96,45.94,AA,Peter; German mathematician (1580-1639).,1343
x,Ctesibius,0.83,118.75,32.1,AA,Egyptian physicist (unkn-c. 100 B.C.).,1344
x,Curie,-23.05,92.28,138.87,AA,"Pierre; French physicist, chemist; Nobel laureate (1859-1906).",1350
x,Curtis,14.57,56.79,2.88,AA,Heber Doust; American astronomer (1872-1942).,1352
x,Curtius,-67.08,4.4,99.29,AA,"Curtz, Albert; German astronomer (1600-1671).",1353
x,Cusanus,71.82,69.4,60.87,AA,"Nikolaus Krebs; German mathematician, philosopher (1401-1464).",1354
x,Cuvier,-50.29,9.69,77.3,AA,"Georges; French natural scientist, paleontologist (1769-1832).",1356
x,Cyrano,-20.37,157.37,79.58,AA,Cyrano De Bergerac Savinien; French writer (1615-1655).,1371
x,Cyrillus,-13.29,24.07,98.09,AA,"Saint Cyril; Egyptian theologian, chronologist (unkn-A.D. 444).",1372
x,Cysatus,-66.21,-6.34,47.77,AA,"Cysat, Jean-Baptiste; Swiss mathematician, astronomer (1588-1657).",1373
x,Daedalus,-5.83,179.4,93.61,AA,Greek mythological character.,1381
x,Dag,18.71,5.26,0.36,AA,Scandinavian male name.,1385
x,Daguerre,-11.91,33.61,45.79,AA,"Louis-Jacques-Mandé; French artist, chemist, photographer (1789-1851).",1388
x,Dale,-9.56,82.93,23.41,AA,Sir Henry Hallett; British physiologist; Nobel laureate (1875-1968).,1389
x,d'Alembert,51.07,164.89,233.55,AA,"Jean-Le-Rond; French mathematician, physicist (1717-1783). Note: Spelling changed from D'Alembert March 22, 2010.",1694
x,Dalton,17.07,-84.45,60.69,AA,"John; British chemist, physicist (1766-1844).",1392
x,Daly,5.74,59.5,14.96,AA,Reginald Aldworth; Canadian-born American geologist (1871-1957).,1393
x,Damoiseau,-4.85,-61.25,36.66,AA,Baron Marie-Charles-Theodor de; French astronomer (1768-1846).,1396
x,Daniell,35.42,31.16,28.2,AA,"John Frederick; British physicist, chemist, meteorologist (1790-1845).",1400
x,Danjon,-11.42,123.9,69.3,AA,Andre; French astronomer (1890-1967).,1402
x,Dante,25.36,180,53.83,AA,Alighieri; Italian poet (1265-1321).,1405
x,Darney,-14.61,-23.57,14.81,AA,Maurice; French astronomer (1882-1958).,1415
x,D'Arrest,2.26,14.6,29.67,AA,Heinrich Louis; German astronomer (1822-1875).,1695
x,D'Arsonval,-10.31,124.59,30.36,AA,Jacques Arsène; French physicist (1851-1940).,1697
x,Darwin,-19.93,-69.21,122.18,AA,Charles; British natural scientist (1809-1882).,1417
x,Das,-26.49,-137.05,35.95,AA,Amil Kumar; Indian astronomer (1902-1961).,1421
x,Daubrée,15.73,14.75,14.67,AA,Gabriel-Auguste; French geologist (1814-1896).,1424
x,da Vinci,9.1,44.95,37.46,AA,"Leonardo; Italian artist, inventor, mathematician (1452-1519).",1376
x,Davisson,-37.93,-174.97,92.46,AA,Clinton Joseph; American physicist; Nobel laureate (1881-1958).,1428
x,Davy,-11.85,-8.15,33.94,AA,Humphry; British physicist (1778-1829).,1429
x,Dawes,17.21,26.34,17.6,AA,William Rutter; British astronomer (1799-1868).,1430
x,Dawson,-66.99,-135.05,44.32,AA,Bernhard Hildebrandt; Argentinean astronomer (1890-1960).,1432
x,D. Brown,-41.65,-147.16,16.12,AA,"David McDowell; American astronaut, Space Shuttle Columbia Mission Specialist (1956-2003).",14138
x,Debes,29.47,51.62,31.92,AA,Ernst; German cartographer (1840-1923).,1452
x,Debus,-10.68,99.68,19.77,AA,Kurt Heinrich; German physicist (1908-1983). Note: Formerly Ganskiy H,1454
x,Debye,49.43,-176.03,127.03,AA,"Peter Joseph William; Dutch physicist, chemist; Nobel laureate (1884-1966).",1455
x,Dechen,46.12,-68.18,12.04,AA,"Ernst Heinrich Karl von; German geologist, mineralogist (1800-1889).",1456
x,De Forest,-76.94,-163.33,56.26,AA,Lee; American inventor (1873-1961).,1437
x,de Gasparis,-25.83,-50.83,30.9,AA,Annibale; Italian astronomer (1819-1892).,1438
x,de Gerlache,-88.48,-88.34,32.71,AA,Adrien; Belgian Antarctic explorer (1866-1934).,1439
x,Delambre,-1.94,17.39,51.49,AA,Jean-Baptiste Joseph; French astronomer (1749-1822).,1467
x,De La Rue,59.02,52.84,135.22,AA,Warren; British astronomer (1815-1889).,1440
x,Delaunay,-22.26,2.62,44.63,AA,Charles-Eugène; French astronomer (1816-1872).,1468
x,Delia,-10.91,-6.13,1.57,AA,Greek female name.,1470
x,Delisle,29.98,-34.68,24.83,AA,Joseph Nicolas; French astronomer (1688-1768).,1472
x,Dellinger,-6.87,140.7,82.04,AA,John Howard; American physicist (1886-1962).,1473
x,Delmotte,27.16,60.2,32.16,AA,Gabriel; French astronomer (1876-1950).,1474
x,Delporte,-15.89,121.55,42.5,AA,Eugène Joseph; Belgian astronomer (1882-1955).,1477
x,Deluc,-55.02,-2.98,45.69,AA,"Jean Andre; Swiss geologist, physicist (1727-1817).",1480
x,Dembowski,2.88,7.27,26.11,AA,Baron Ercole; Italian astronomer (1815-1881).,1481
x,Democritus,62.31,34.99,37.78,AA,"Greek astronomer, philosopher (c. 460-360 B.C.).",1483
x,Demonax,-78.09,59.36,121.93,AA,Greek philosopher (fl. 2nd century A.D.).,1484
x,De Moraes,49.38,143,54.41,AA,Abraao de; Brazilian astronomer (1916-1970).,1442
x,De Morgan,3.31,14.89,9.68,AA,Augustus; British mathematician (1806-1871).,1443
x,Denning,-16.26,142.76,44.18,AA,William Fredrick; British astronomer (1848-1931).,1489
x,De Roy,-55.24,-98.99,43.51,AA,Felix; Belgian astronomer (1883-1942).,1444
x,Desargues,70.25,-73.42,84.85,AA,"Gérard; French mathematician, engineer (1593-1662).",1497
x,Descartes,-11.74,15.67,47.73,AA,"René; French mathematician, philosopher (1596-1650).",1498
x,Deseilligny,21.13,20.59,6.01,AA,Jules Alfred Pierrot; French selenographer (1868-1918).,1501
x,De Sitter,79.81,38.57,63.79,AA,Willem; Dutch astronomer (1872-1934).,1445
x,Deslandres,-32.55,-5.57,227.02,AA,Henri Alexandre; French astrophysicist (1853-1948).,1502
x,Deutsch,24.35,110.91,73.33,AA,Armin Joseph; American astronomer (1918-1969).,1510
x,De Vico,-19.71,-60.32,22.13,AA,Francesco; Italian astronomer (1805-1848).,1448
x,De Vries,-19.68,-176.78,57.51,AA,Hugo Marie; Dutch botanist (1848-1935).,1449
x,Dewar,-2.61,165.62,46.31,AA,Sir James; British chemist (1842-1923).,1515
x,Diana,14.29,35.65,1.55,AA,Latin female name.,1524
x,Diderot,-20.42,121.54,20,AA,Denis; French philosopher (1713-1784).,1529
x,Dionysius,2.77,17.29,17.25,AA,St. Dionysius the Areopagite; Greek astronomer (fl. 1st century A.D.).,1542
x,Diophantus,27.62,-34.3,17.57,AA,Greek mathematician (unkn-c. A.D. 300).,1543
x,Dirichlet,10.58,-152.05,47.24,AA,Peter Gustav Lejeune; German mathematician (1805-1859).,1545
x,Dobrovol'skiy,-12.83,129.68,38.4,AA,Georgy Timofeyevich; Soviet cosmonaut (1928-1971).,1559
x,Doerfel,-68.97,-108.53,68.63,AA,Georg Samuel; German astronomer (1643-1688).,1562
x,Dollond,-10.48,14.41,11.04,AA,John; British optician (1706-1761).,1566
x,Donati,-20.69,5.1,35.84,AA,Giovanni Battista; Italian astronomer (1826-1873).,1574
x,Donna,7.22,38.3,1.84,AA,Italian female name.,1575
x,Donner,-31.35,97.99,55.05,AA,Anders Severin; Finnish astronomer (1854-1938).,1577
x,Doppelmayer,-28.48,-41.51,65.08,AA,"Johann Gabriel; German mathematician, astronomer (1671-1750).",1579
x,Doppler,-12.58,-159.84,101.79,AA,"Johann Christian; Austrian physicist, mathematician, astronomer (1803-1853).",1580
x,Doublet,-3.7,-17.5,0.4,LF,"Astronaut-named feature, Apollo 14 site.",1629
x,Douglass,35.5,-122.72,50.95,AA,Andrew Ellicott; American astronomer (1867-1962).,1630
x,Dove,-46.83,31.42,30.36,AA,Heinrich Wilhelm; German physicist (1803-1879).,1632
x,Draper,17.56,-21.75,8.28,AA,Henry; American astronomer (1837-1882).,1635
x,Drebbel,-40.93,-49.12,30.23,AA,Cornelius; Dutch inventor (1572-1634).,1637
x,Dreyer,10.24,97.09,63.84,AA,Johann Ludwig Emil; Danish astronomer (1852-1926).,1638
x,Drude,-38.56,-91.89,27.13,AA,Paul Karl Ludwig; German physicist (1863-1906).,1642
x,Dryden,-33.21,-156.15,54.45,AA,"Hugh Latimer; American physicist, engineer (1898-1965).",1644
x,Drygalski,-79.57,-87.18,162.49,AA,"Erich Dagobert von; German geographer, geophysicist (1865-1949).",1645
x,Dubyago,4.38,69.95,48.12,AA,Dmitrij Ivanovich; Russian astronomer (1850-1918); Alexander Dmitrievich; Soviet astronomer (1903-1959).,1655
x,Dufay,5.57,169.54,36.11,AA,Jean Claude Barthélemy; French astronomer (1896-1967).,1657
x,Dugan,64.12,103.11,49.65,AA,Raymond Smith; American astronomer (1878-1940).,1658
x,Dune,26,3.7,0.4,LF,"Astronaut-named feature, Apollo 15 site.",1662
x,Dunér,44.68,179.46,65.07,AA,Nils Christofer; Swedish astronomer (1839-1914).,1670
x,Dunthorne,-30.12,-31.71,15.12,AA,Richard; British astronomer (1711-1775).,1668
x,Dyson,60.87,-121.71,63.14,AA,Sir Frank Watson; British astronomer (1868-1939).,1685
x,Dziewulski,20.99,99.02,68.9,AA,Wladyslaw; Polish astronomer (1878-1962).,1689
x,Earthlight,26.1,3.7,0.2,LF,"Astronaut-named feature, Apollo 15 site.",1705
x,Eckert,17.28,58.38,2.62,AA,Wallace John; American astronomer (1902-1971).,1715
x,Eddington,21.5,-72.02,120.13,AA,"Sir Arthur Stanley; British astrophysicist, mathematician (1882-1944).",1719
x,Edison,24.88,99.27,62.72,AA,Thomas Alva; American inventor (1847-1931).,1723
x,Edith,-25.77,102.33,6.92,AA,English female name.,1724
x,Egede,48.72,10.64,34.18,AA,Hans; Danish natural historian (1686-1758).,1728
x,Ehrlich,40.82,-172.27,33.58,AA,Paul; German doctor; Nobel laureate (1854-1915).,1734
x,Eichstadt,-22.63,-78.42,49.57,AA,"Lorentz; German mathematician, astronomer (1596-1660).",1735
x,Eijkman,-63.21,-142.51,56.36,AA,Christiaan; Dutch doctor; Nobel laureate (1858-1930).,1737
x,Eimmart,23.97,64.8,44.99,AA,Georg Christoph; German astronomer (1638-1705).,1742
x,Einstein,16.6,-88.65,181.47,AA,Albert; German-American physicist; Nobel laureate (1879-1955).,1745
x,Einthoven,-5.06,110.06,73.94,AA,Willem; Dutch physiologist; Nobel laureate (1860-1927).,1746
x,Elbow,26,3.6,0.3,LF,"Astronaut-named feature, Apollo 15 site.",1759
x,Elger,-35.4,-29.81,21.51,AA,Thomas Gwyn Empy; British astronomer (1836-1897).,1763
x,Ellerman,-25.44,-120.39,46.21,AA,Ferdinand; American astronomer (1869-1940).,1769
x,Ellison,54.93,-108.05,36.99,AA,Mervyn Archdall; Irish-born British astronomer (1909-1963).,1770
x,Elmer,-10.23,84.18,16.86,AA,Charles Wesley; American astronomer (1872-1954).,1774
x,Elvey,9.01,-100.64,80.21,AA,"Christian Thomas; American astronomer, geophysicist (1899-1970).",1777
x,Emden,62.76,-176.51,114.64,AA,"Robert; Swiss astrophysicist, meteorologist (1862-1940).",1789
x,Emory,20.1,30.8,0.5,LF,"Astronaut-named feature, Apollo 17 site.",1794
x,Encke,4.57,-36.68,28.27,AA,"Johann Franz; German mathematician, astronomer (1791-1865).",1796
x,End,-8.9,15.6,0.4,LF,"Astronaut-named feature, Apollo 16 site.",1797
x,Endymion,53.61,56.48,122.1,AA,Greek mythological character.,1799
x,Engel'gardt (Engelhardt),5.39,-159.47,43.51,AA,Vasilij Pavlovich; Russian astronomer (1828-1915).,1801
x,Eötvös,-35.61,134.43,101.8,AA,Lóránt (English - Roland) von; Hungarian physicist (1848-1919).,1893
x,Epigenes,67.5,-4.62,54.51,AA,Greek astronomer (unkn-c. 200 B.C.).,1815
x,Epimenides,-40.92,-30.33,22.56,AA,"Greek philosopher, writer (unkn-fl. 596 B.C.).",1817
x,Eratosthenes,14.47,-11.32,58.77,AA,"Greek astronomer, geographer (c. 276-196 B.C.).",1820
x,Erlanger,86.99,28.62,10.94,AA,"Joseph; American physiologist, Nobel Prize winner 1944 (1874-1965).",14525
x,Erro,5.68,98.54,63.75,AA,Luis Enrique; Mexican astronomer (1897-1955).,1837
x,Esclangon,21.47,42.06,15.29,AA,Ernest Benjamin; French astronomer (1876-1954).,1842
x,Esnault-Pelterie,47.41,-141.83,76.79,AA,Robert-Albert-Charles; French rocketry engineer (1881-1957).,1848
x,Espin,28.15,109.34,70.01,AA,Thomas Henry Espinall Compton; British astronomer (1858-1934).,1849
x,Euclides,-7.4,-29.56,11.8,AA,Euclid; Greek mathematician (unkn-c. 300 B.C.).,1860
x,Euctemon,76.26,30.57,62.7,AA,Greek astronomer (unkn-fl. 432 B.C.).,1861
x,Eudoxus,44.27,16.23,70.16,AA,Greek astronomer (c. 408-355 B.C.).,1863
x,Euler,23.26,-29.18,26.03,AA,Leonhard; Swiss mathematician (1707-1783).,1866
x,Evans,-9.63,-133.78,69.4,AA,Sir Arthur; British archaeologist (1851-1941).,1883
x,Evdokimov,34.57,-153.04,48.88,AA,Nikolaj N.; Soviet astronomer (1868-1940).,1884
x,Evershed,35.3,-159.51,65.28,AA,John; British astronomer (1864-1956).,1887
x,Ewen,7.69,121.46,2.6,AA,Gaelic male name.,1891
x,Fabbroni,18.66,29.27,10.55,AA,Giovanni Valentino Mattia; Italian chemist (1752-1822).,1894
x,Fabricius,-42.75,41.84,78.9,AA,"Goldschmidt, David; Dutch astronomer (1564-1617).",1895
x,Fabry,43.07,100.68,179.44,AA,Charles; French physicist (1867-1945).,1896
x,Fahrenheit,13.12,61.71,6.65,AA,Gabriel Daniel; Dutch physicist (1686-1736).,1898
x,Fairouz,-26.07,102.95,2.87,AA,Arab female name.,1901
x,Falcon,20.4,30.3,0,LF,"Astronaut-named feature, Apollo 17 site.",1904
x,Family Mountain,20.4,30.3,7,LF,"Astronaut-named feature, Apollo 17 site.",1907
x,Faraday,-42.45,8.75,69.03,AA,"Michael; British chemist, physicist (1791-1867).",1911
x,Faustini,-87.18,84.31,42.48,AA,Arnaldo; Italian polar geographer (1874-1944).,1919
x,Fauth,6.23,-20.14,11.94,AA,Philipp Johann Heinrich; German selenographer (1867-1941).,1920
x,Faye,-21.39,3.81,38.02,AA,Hervé-Auguste-Etienne-Albans; French astronomer (1814-1902).,1922
x,Fechner,-58.25,125.03,59.32,AA,"Gustav Theodor; German physicist, psychologist, and philosopher (1801-1887).",1925
x,Fedorov,28.23,-37.05,6.08,AA,A.P.; Russian rocket scientist (1872-1920).,1928
x,Felix,25.09,-25.38,1.45,AA,Latin male name.,1934
x,Fényi,-44.94,-105.06,43.31,AA,Gyula; Hungarian astronomer (1845-1927).,2045
x,Feoktistov,30.73,140.5,22.06,AA,Konstantin P.; Soviet cosmonaut (1926-2009).,1936
x,Fermat,-22.71,19.79,37.77,AA,Pierre De; French mathematician (1601-1665).,1939
x,Fermi,-19.61,123.24,241.41,AA,Enrico; Italian-American physicist; Nobel laureate (1901-1954).,1940
x,Fernelius,-38.18,4.86,68.42,AA,"Jean François; French doctor, astronomer (1497-1558).",1942
x,Fersman,17.9,-126.06,148.14,AA,Aleksandr Yevgenyevich; Soviet geochemist (1883-1945).,1945
x,Fesenkov,-23.16,135.14,36.12,AA,Vasilii Grigor'evich; Russian astrophysicist (1889-1972).,1947
x,Feuillée,27.37,-9.46,8.94,AA,Louis; French natural scientist (1660-1732).,1952
x,Fibiger,86.14,37.13,21.1,AA,"Joahnnes Andreas Grib; Danish pathologist, Nobel Prize winner 1926 (1867-1928).",14526
x,Finsch,23.58,21.27,4.05,AA,Otto Friedrich Hermann; German zoologist (1839-1917).,1958
x,Finsen,-42.29,-177.72,72.98,AA,Niels Ryberg; Danish phototherapist; Nobel laureate (1860-1904).,1959
x,Firmicus,7.25,63.43,56.81,AA,Julius Maternus of Syracuse; Roman astrologer (fl. A.D. 330-354).,1963
x,Firsov,4.2,112.7,51,AA,Georgij Frolovich; Soviet rocketry engineer (1917-1960).,1964
x,Fischer,7.99,142.44,30.48,AA,Emil Hermann; German chemist (1852-1919); Hans; German organic chemist (1881-1945).,1966
x,Fitzgerald,26.67,-172.14,104.21,AA,George Francis; Irish physicist (1851-1901).,1967
x,Fizeau,-58.19,-134.11,107.08,AA,Armand-Hippolyte-Louis; French physicist (1819-1896).,1968
x,Flag,-9,15.5,0.01,LF,"Astronaut-named feature, Apollo 16 site.",1970
x,Flammarion,-3.33,-3.73,76.18,AA,Camille; French astronomer (1842-1925).,1972
x,Flamsteed,-4.49,-44.34,19.34,AA,John; British astronomer (1646-1719).,1974
x,Flank,-3.7,-17.4,0.03,LF,"Astronaut-named feature, Apollo 14 site.",1975
x,Fleming,14.91,109.28,126.37,AA,"Alexander; British doctor, Nobel laureate (1881-1955); Williamina Paton; Scottish-born American astronomer (1857-1911).",1979
x,Florensky,25.45,131.85,69.03,AA,Kirill Pavlovich; Soviet geologist (1915-1982). Note: Formerly Vernadskiy B,1984
x,Florey,87.04,-19.75,69.06,AA,"Howard Walter; Australian-born British pathologist, Nobel Prize winner 1945 (1898-1968).",14527
x,Focas,-33.7,-93.91,22.04,AA,Ionnas (Jean-Henri); Greek/French astronomer (1909-1969).,1988
x,Fontana,-16.04,-56.79,31.47,AA,Francesco; Italian astronomer (c. 1585-1646).,1990
x,Fontenelle,63.42,-18.96,37.68,AA,Bernard Le Bovier De; French astronomer (1657-1757).,1992
x,Foster,23.59,-141.49,37.02,AA,John Stuart; Canadian physicist (1890-1964).,1999
x,Foucault,50.46,-39.86,25.08,AA,Leon; French physicist (1819-1868).,2001
x,Fourier,-30.31,-53.1,51.57,AA,Jean-Baptiste Joseph; French mathematician (1768-1830).,2003
x,Fowler,42.59,-145.27,139.52,AA,Alfred; British astronomer (1868-1940); Ralph Howard; British mathematician; physicist (1889-1944).,2005
x,Fox,0.47,98.14,23.97,AA,Philip; American astronomer (1878-1944).,2006
x,Fracastorius,-21.36,33.07,120.58,AA,"Fracastoro, Girolamo; Italian doctor, astronomer (1483-1553).",2008
x,Fra Mauro,-6.06,-16.97,96.76,AA,Italian geographer (unkn-1459).,2007
x,Franck,22.59,35.56,11.91,AA,James; German physicist; Nobel laureate (1882-1964).,2012
x,Franklin,38.73,47.64,55.92,AA,Benjamin; American inventor (1706-1790).,2014
x,Franz,16.57,40.24,25.48,AA,Julius Heinrich; German astronomer (1847-1913).,2015
x,Fraunhofer,-39.52,59.06,57.75,AA,"Joseph von; German astronomer, optician (1787-1826).",2016
x,Fredholm,18.37,46.55,13.39,AA,Erik Ivar; Swedish mathematician (1866-1927).,2018
x,Freud,25.79,-52.4,2.85,AA,Sigmund; Austrian psychoanalyst (1856-1939).,2022
x,Freundlich,25,170.89,83.16,AA,Erwin (Finlay-); German-British astronomer (1885-1964).,2023
x,Fridman (Friedmann),-12.48,-126.88,101.45,AA,Aleksandr Alexandrovich; Soviet physicist (1888-1925).,2027
x,Froelich,80,-111.63,56.73,AA,Jack Edward (Froehlich); American rocket scientist (1921-1967).,2030
x,Frost,37.41,-118.9,78.3,AA,Edwin Brant; American astronomer (1866-1935).,2031
x,Fryxell,-21.25,-101.65,17.62,AA,Roald Hilding; American geologist (1934-1974). Note: Formerly Golitsyn B,2033
x,Furnerius,-36,60.54,135.03,AA,"Furner, Georges; French mathematician (unkn-fl. 1643).",2043
x,Gadomski,36.21,-147.36,65.66,AA,Jan; Polish astronomer (1889-1966).,2052
x,Gagarin,-19.66,149.35,261.83,AA,Yury Alekseyevich; Soviet cosmonaut (1934-1968).,2054
x,Galen,21.95,4.96,9.18,AA,Claudius; Greek doctor (c. 129-200).,2072
x,Galilaei,10.48,-62.83,15.99,AA,"Galileo; Italian astronomer, physicist (1564-1642).",2074
x,Galle,55.87,22.33,20.96,AA,Johann Gottfried; German astronomer (1812-1910).,2079
x,Galois,-13.94,-152.99,231.97,AA,Evariste; French mathematician (1811-1832).,2081
x,Galvani,49.51,-84.56,76.83,AA,Luigi; Italian physicist (1737-1798).,2083
x,Gambart,0.92,-15.24,24.68,AA,Jean-Felix-Adolphe; French astronomer (1800-1836).,2085
x,Gamow,65.29,144.65,113.92,AA,George; American physicist (1904-1968).,2086
x,Ganskiy (Hansky),-9.64,97,42.11,AA,Aleksey Pavlovich; Russian astronomer (1870-1908).,2100
x,Ganswindt,-79.42,111.17,77.52,AA,Hermann; German rocketry engineer (1856-1934).,2101
x,Garavito,-47.21,156.78,81.05,AA,Julio Garavito Armero; Colombian astronomer (1865-1920).,2102
x,Gardner,17.75,33.81,17.62,AA,Irvine Clifton; American physicist (1889-1972).,2104
x,Gärtner,59.24,34.76,101.79,AA,"Christian; German mineralogist, geologist (c. 1750-1813).",2302
x,Gassendi,-17.55,-39.96,111.39,AA,"Pierre; French astronomer, mathematician (1592-1655).",2111
x,Gaston,30.88,-33.96,2.02,AA,French male name.,2112
x,Gator,-9,15.6,0.9,LF,"Astronaut-named feature, Apollo 16 site.",2115
x,Gaudibert,-10.93,37.82,33.14,AA,Casimir Marie; French astronomer (1823-1901).,2116
x,Gauricus,-33.91,-12.74,79.64,AA,"Gaurico, Luca; Italian astronomer (1476-1558).",2119
x,Gauss,36.01,79.08,170.72,AA,Karl Friedrich; German mathematician (1777-1855).,2120
x,Gavrilov,17.41,131.22,61.62,AA,"Aleksandr Ivanovich; Soviet rocket engineer (1884-1955), Igor V.; Soviet astronomer (1928-1982).",2122
x,Gay-Lussac,13.88,-20.79,25.4,AA,Joseph Louis; French physicist (1778-1850).,2124
x,G. Bond,32.39,36.32,19.05,AA,George Philip; American astronomer (1826-1865).,2046
x,Geber,-19.46,13.85,44.68,AA,"Jabir Ibn Aflah Al-Ishbili, Abu Muhammad; Spanish-Arab astronomer (fl. first half of twelfth cent.).",2128
x,Geiger,-14.39,158.41,36.63,AA,Johannes Hans Wilhelm; German physicist (1882-1945).,2133
x,Geissler,-2.6,76.51,17.39,AA,Heinrich; German physicist (1814-1879).,2136
x,Geminus,34.42,56.66,81.98,AA,Greek astronomer (unkn-c. 70 B.C.).,2137
x,Gemma Frisius,-34.33,13.37,88.54,AA,"Jemma, Reinier; Dutch doctor (1508-1555).",2138
,Gena,38.3,-35,0.2,AA,Greek-derived male name Gennady in Russian diminutive form (Lunokhod-1 landing site feature).,15005
x,Gerard,44.54,-80.51,98.78,AA,Alexander; Scottish explorer (1792-1839).,2143
x,Gerasimovich,-22.95,-123.42,90.19,AA,Boris Petrovich; Soviet astronomer (1889-1937).,2144
x,Gernsback,-36.53,99.53,47.2,AA,Hugo; American writer (1884-1967).,2148
x,Gibbs,-18.37,84.27,78.76,AA,Josiah Willard; American mathematical physicist (1839-1903).,2155
x,Gilbert,-3.2,76.16,100.25,AA,"Grove Karl; American geologist (1843-1918), William; English physician and physicist (1544-1603).",2159
x,Gill,-63.77,75.95,63.9,AA,Sir David; British astronomer (1843-1914).,2163
x,Ginzel,14.25,97.4,53.23,AA,Friedrich Karl; Austrian astronomer (1850-1926).,2170
x,Gioja,83.35,1.76,42.47,AA,Flavio; Italian inventor (unkn-fl. 1302).,2171
x,Giordano Bruno,35.97,102.89,22.13,AA,Italian astronomer (1548-1600).,2172
x,Glaisher,13.19,49.34,15.92,AA,James; British meteorologist (1809-1903).,2182
x,Glauber,11.32,142.67,15.24,AA,Johann Rudolph; German chemist (c. 1603-1670).,2184
x,Glazenap,-1.85,137.76,38.96,AA,Sergei Pavlovich; Soviet astronomer (1848-1937).,2186
x,Glushko,8.11,-77.67,40.1,AA,Valentin Petrovich; Russian space scientist (1908-1989). Note: Formerly Olbers A,2195
x,Goclenius,-10.05,45.03,73.04,AA,"Gockel, Rudolf; German physicist, doctor, mathematician (1572-1621).",2198
x,Goddard,15.15,89.13,93.18,AA,Robert Hutchings; American rocketry scientist (1882-1945).,2199
x,Godin,1.82,10.16,34.25,AA,"Louis; French astronomer, mathematician (1704-1760).",2201
x,Goldschmidt,73.04,-3.37,115.26,AA,"Hermann; French astronomer of German origin, discoverer of asteroid (21) Lutetia (1802-1866).",2210
x,Golgi,27.78,-59.96,5.58,AA,Camillo; Italian doctor; Nobel laureate (c. 1843-1926).,2213
x,Golitsyn,-25.2,-105.2,35.47,AA,Boris Borisovich; Russian physicist (1862-1916).,2214
x,Golovin,39.75,161.24,37.86,AA,Nicholas Erasmus; American rocketry scientist (1912-1969).,2215
x,Goodacre,-32.67,14.08,44.09,AA,Walter; British selenographer (1856-1938).,2221
x,Gore,86.18,-62.31,9.41,AA,John Ellard; Irish astronomer (1845-1910).,14528
x,Gould,-19.26,-17.25,32.99,AA,Benjamin Apthorp; American astronomer (1824-1896).,2227
x,Grace,14.21,35.89,1.49,AA,English female name.,2230
x,Grachev,-3.83,-108.42,34.98,AA,Andrej Dmitrievich; Soviet rocketry scientist (1900-1964).,2232
x,Graff,-42.3,-88.71,36.16,AA,Kasimir Romuald; Polish-German astronomer (1878-1950).,2233
x,Grave,-17.04,150.23,36.95,AA,Dmitry Aleksandrovich; Soviet mathematician (1863-1939); Ivan Platonovich; Soviet engineer (1874-1960).,2239
x,Greaves,13.18,52.79,14.27,AA,William Michael Herbert; British astronomer (1897-1955). Note: Formerly Lick D,2241
x,Green,3.69,133.12,68.28,AA,George; British mathematician (1793-1841).,2243
x,Gregory,1.76,127.28,63.9,AA,"James; Scottish astronomer, mathematician (1638-1675).",2246
x,Grigg,12.5,-130.13,36.72,AA,John; New Zealander astronomer (1838-1920).,2251
x,Grignard,84.54,-75.83,12.95,AA,"Victor; French chemist, Nobel Prize winner 1912 (1871-1935).",14529
x,Grimaldi,-5.38,-68.36,173.49,AA,"Francesco Maria; Italian astronomer, physicist (1618-1663).",2252
x,Grissom,-46.92,-147.98,59.82,AA,"Virgil Ivan (""Gus""); American astronaut (1926-1967).",2255
x,Grotrian,-66.15,128.28,36.78,AA,Walter; German astronomer (1890-1954).,2258
x,Grove,40.3,32.98,28.55,AA,Sir William Robert; British physicist (1811-1896).,2259
x,Gruemberger,-67.04,-10.3,91.5,AA,Christoph; Austrian astronomer (1561-1636).,2261
x,Gruithuisen,32.89,-39.78,14.98,AA,Franz von; German astronomer (1774-1852).,2262
x,Guericke,-11.57,-14.19,60.75,AA,"Otto von; German physicist, engineer, naturalist (1602-1686).",2268
x,Guillaume,45.16,-173.38,56.75,AA,Charles Edouard; Swiss metallurgist; Nobel laureate (1861-1938).,2272
x,Gullstrand,44.95,-129.67,45.05,AA,Allvar; Swedish ophthalmologist; Nobel laureate (1862-1930).,2280
x,Gum,-40.34,88.91,54.55,AA,Colin; Australian astronomer (1924-1960).,2282
x,Gutenberg,-8.61,41.25,70.65,AA,Johannes Gensfleisch Zur Laden; German inventor (c. 1390-1468).,2290
x,Guthnick,-47.76,-94.04,37.03,AA,Paul; German astronomer (1879-1947).,2291
x,Guyot,11.63,117.12,98.28,AA,"Arnold Henry; Swiss-born American geographer, geologist (1807-1884).",2292
x,Gyldén,-5.37,0.23,48.15,AA,Johan August Hugo; Swedish astronomer (1841-1896).,2300
x,Haber,83.4,-94.63,56.79,AA,"Fritz; German-Swiss chemist, Nobel Prize winner 1918 (1868-1934).",14530
x,Hagecius,-59.92,46.63,79.55,AA,"Hayek, Thaddaeus; Czechoslovakian astronomer, mathematician (1525-1600).",2312
x,Hagen,-48.32,135.95,57.52,AA,Johann Georg; Austrian astronomer (1847-1930).,2313
x,Hahn,31.22,73.55,87.49,AA,Friedrich von; German astronomer (1741-1805); Otto; German chemist (1879-1968).,2314
x,Haidinger,-39.18,-25.14,21.33,AA,"Wilhelm Karl von; Austrian geologist, physicist (1795-1871).",2315
x,Hainzel,-41.23,-33.52,70.56,AA,Paul; German astronomer (1527-1581).,2317
x,Haldane,-1.66,84.11,40.26,AA,John Burdon Sanderson; British doctor (1892-1964).,2319
x,Hale,-74.13,91.71,84.42,AA,George Ellery; American astronomer (1868-1938); William; British rocket scientist (1797-1870).,2321
x,Halfway,-9,15.5,0.1,LF,"Astronaut-named feature, Apollo 16 site.",2324
x,Hall,33.81,36.75,31.77,AA,Asaph; American astronomer (1829-1907).,2327
x,Halley,-8.05,5.73,34.59,AA,Edmond; British astronomer (1656-1742).,2330
x,Halo,-3.2,-23.4,0.01,LF,"Astronaut-named feature, Apollo 12 site.",2333
x,Hamilton,-42.77,84.41,57.45,AA,Sir William Rowan; Irish mathematician (1805-1865).,2339
x,Hanno,-56.46,71.38,59.54,AA,Carthaginian navigator(unkn-c. 500 B.C.).,2351
x,Hansen,14.04,72.54,41.18,AA,Peter Andreas; Danish astronomer (1795-1874).,2353
x,Hansteen,-11.53,-52.06,44.99,AA,Christopher; Norwegian astronomer (1784-1873).,2354
x,Harden,5.46,143.55,14.98,AA,Sir Arthur; British chemist; Nobel laureate (1865-1940).,2361
x,Harding,43.54,-71.66,22.57,AA,Karl Ludwig; German astronomer (1765-1834).,2362
x,Haret,-58.77,-176.19,29.77,AA,Spiru; Rumanian astronomer (1851-1912).,2363
x,Hargreaves,-2.18,64.09,18,AA,"Frederick James; British astronomer, optician (1891-1970).",2364
x,Harkhebi,40.87,98.74,337.14,AA,Egyptian astronomer (c. 300 B.C.).,2365
x,Harlan,-38.31,79.65,63.45,AA,Harlan James Smith; American astronomer (1924-1991). Note: Formerly Marinus D,2366
x,Harold,-10.88,-6.07,1.43,AA,Scandinavian male name.,2370
x,Harpalus,52.73,-43.49,39.77,AA,Greek astronomer (unkn-c. 460 B.C.).,2372
x,Harriot,33.2,114.4,52.77,AA,"Thomas; British mathematician, astronomer (1560-1621).",2374
x,Hartmann,2.71,135.45,63.29,AA,Johannes Franz; German astronomer (1865-1936).,2375
x,Hartwig,-6.14,-80.47,78.46,AA,(Carl) Ernst (Albrecht); German astronomer (1851-1923).,2376
x,Harvey,19.35,-146.51,59.98,AA,William; British doctor (1578-1657).,2379
x,Hase,-29.37,62.68,82.08,AA,Johann Matthias; German mathematician (1684-1742).,2380
x,Haskin,81.51,133.16,66.57,AA,"Larry A.; American chemist, geochemist (1934-2005).",14532
x,Hatanaka,29.33,-121.92,30.15,AA,Takeo; Japanese astronomer (1914-1963).,2381
x,Hausen,-65.11,-88.49,163.24,AA,"Christian August; German astronomer, mathematician, physicist (1693-1743).",2388
x,Haworth,-87.45,-5.17,51.42,AA,"Sir Walter Norman; English chemist, 1937 Nobel Prize winner for chemistry (1883-1950).",14502
x,Hayford,12.68,-176.45,28.15,AA,"John Fillmore; American civil engineer, geodesist (1868-1925).",2393
x,Hayn,64.56,83.87,86.21,AA,Friedrich Karl; German astronomer (1863-1928).,2394
x,Head,-3,-23.4,0.1,LF,"Astronaut-named feature, Apollo 12 site.",2396
x,Healy,32.5,-111,37.98,AA,Roy; American rocketry scientist (1915-1968).,2397
x,Heaviside,-10.44,166.77,164.46,AA,"Oliver; British mathematician, physicist (1850-1925).",2400
x,Hecataeus,-22.06,79.68,133.67,AA,Greek geographer (unkn-c. 476 B.C.).,2405
x,Hédervári,-81.77,85.6,74.14,AA,Peter; Hungarian geoscientist (1931-1984). Note: Formerly Amundsen A,2620
x,Hedin,2.87,-76.57,157.38,AA,Sven Anders; Swedish explorer (1865-1952).,2409
x,Heinrich,24.84,-15.37,6.86,AA,Wladimir Wáclav; Czechoslovakian astronomer (1884-1965).,2416
x,Heinsius,-39.48,-17.82,64.87,AA,Gottfried; German astronomer (1709-1769).,2417
x,Heis,32.47,-31.98,13.69,AA,Eduard; German astronomer (1806-1877).,2418
x,Helberg,22.63,-102.46,61.93,AA,Robert J.; American aeronautical engineer (1906-1967).,2421
x,Helicon,40.43,-23.11,23.74,AA,"Greek astronomer, mathematician (fl. c. 361 B.C.).",2424
x,Hell,-32.41,-7.8,33.31,AA,Maximilian; Hungarian astronomer (1720-1792).,2428
x,Helmert,-7.56,87.67,26.72,AA,"Friedrich Robert; German astronomer, geodesist (1843-1917).",2437
x,Helmholtz,-68.64,65.34,110.16,AA,Hermann Von; German doctor (1821-1894).,2438
x,Henderson,4.76,152,43.49,AA,Thomas; Scottish astronomer (1798-1844).,2445
x,Hendrix,-46.86,-159.97,16.63,AA,Don Osgood; American optician (1905-1961).,2446
x,Henry,-23.97,-57.01,39.06,AA,Joseph; American physicist (1797-1878).,2451
x,Henry Frères,-23.52,-59.02,41.73,AA,Prosper; French astronomer (1849-1903); Paul; French astronomer (1848-1905).,2453
x,Henyey,12.7,-152.33,68.74,AA,Louis George; American astronomer (1910-1970).,2455
x,Heraclitus,-49.31,6.42,85.74,AA,Greek philosopher (c. 540-480 B.C.).,2465
x,Hercules,46.82,39.21,68.32,AA,Latin spelling for Greek mythological hero Heracles.,2467
x,Herigonius,-13.36,-33.97,14.86,AA,"Herigone, Pierre; French mathematician, astronomer (fl. 1634).",2468
x,Hermann,-0.87,-57.47,15.92,AA,Jacob; Swiss mathematician (1678-1733).,2469
x,Hermite,86.17,-93.32,108.64,AA,Charles; French mathematician (1822-1901).,2471
x,Herodotus,23.25,-49.84,35.87,AA,Of Halikarnassus; Greek historian (c. 484-408 B.C.).,2475
x,Heron (Hero),0.65,119.88,28.1,AA,Egyptian inventor (unkn-c. 100 B.C.).,2476
x,Herschel,-5.69,-2.09,39.09,AA,Sir William; German-born British astronomer (1738-1822).,2477
x,Hertz,13.32,104.56,82.94,AA,Heinrich Rudolf; German physicist (1857-1894).,2481
x,Hertzsprung,1.37,-128.66,536.37,AA,Ejnar; Danish astronomer (1873-1967).,2482
x,Hesiodus,-29.42,-16.42,43.24,AA,Hesiod; Greek humanitarian (c. 735 B.C.).,2485
x,Hess,-54.47,174.19,90.44,AA,Victor Franz (Francis); American physicist (1883-1964); Harry Hammond; American geologist (1906-1969).,2490
x,Hess-Apollo,20.1,30.7,0.5,LF,"Astronaut-named feature, Apollo 17 site.",2491
x,Hevelius,2.2,-67.46,113.87,AA,"Howelcke, Johann; Polish astronomer (1611-1687).",2493
x,Hevesy,83.09,149.15,49.99,AA,"Georg Karl; Hungarian chemist, Nobel Prize winner 1943 (1885-1966).",14531
x,Heymans,74.76,-144.94,46.45,AA,Corneille-Jean-François; Belgian physiologist; Nobel laureate (1892-1968).,2494
x,Heyrovsky,-39.55,-95.42,16.66,AA,Jaroslav; Czechoslovakian chemist (1890-1967). Note: Formerly Drude S,2495
x,H. G. Wells,40.84,122.63,108.9,AA,Herbert George; British scientific writer (1866-1946).,2305
x,Hilbert,-17.87,108.32,173.24,AA,David; German mathematician (1862-1943).,2503
x,Hill,20.91,40.81,15.86,AA,"George William; American astronomer, mathematician (1838-1914).",2506
x,Hind,-7.92,7.31,28.5,AA,John Russell; British astronomer (1823-1895).,2511
x,Hinshelwood,89.41,-51.89,13.35,AA,"Sir Cyril Norman; English chemist, Nobel Prize winner 1956 (1897-1967).",14565
x,Hippalus,-24.92,-30.42,57.36,AA,Greek explorer (unkn-c. 120).,2515
x,Hipparchus,-5.36,4.91,143.95,AA,Greek astronomer (unkn-fl. 140 B.C.).,2516
x,Hippocrates,70.26,-146.54,59.24,AA,Greek doctor (c. 460-377 B.C.).,2518
x,Hirayama,-6.01,93.63,145.21,AA,Kiyotsugu; Japanese astronomer (1874-1943); Shin; Japanese astronomer (1867-1945).,2520
x,Hoffmeister,15.04,136.84,44.46,AA,Cuno; German astronomer (1892-1968).,2532
x,Hogg,33.51,121.96,38.39,AA,Arthur Robert; Australian astronomer (1903-1966); Frank Scott; Canadian astronomer (1904-1951).,2533
x,Hohmann,-17.92,-94.26,16.81,AA,Walter; German space flight engineer (1880-1945).,2534
x,Holden,-19.19,62.53,47.6,AA,Edward Singleton; American astronomer (1846-1914).,2539
x,Holetschek,-27.61,151.15,37.77,AA,Johann; Austrian astronomer (1846-1923).,2541
x,Hommel,-54.74,32.93,113.6,AA,"Johann; German astronomer, mathematician (1518-1562).",2546
x,Hooke,41.14,54.86,34.35,AA,"Robert; British physicist, inventor (1635-1703).",2548
x,Hopmann,-51.01,159.23,87.84,AA,Josef; Austrian astronomer (1890-1975).,2551
x,Horatio,20.2,30.7,0.4,LF,"Astronaut-named feature, Apollo 17 site.",2554
x,Hornsby,23.8,12.51,2.85,AA,Thomas; British astronomer (1733-1810).,2556
x,Horrebow,58.8,-40.93,24.98,AA,Peder; Danish astronomer (1679-1764).,2557
x,Horrocks,-3.99,5.85,29.65,AA,Jeremiah; British astronomer (1619-1641).,2558
x,Hortensius,6.47,-28,14.16,AA,"Hove, Martin van den; Dutch astronomer (1605-1639).",2559
x,Houssay,83.11,98.52,31.41,AA,"Bernardo Alberto; Argentinean physiologist, Nobel Prize winner 1947 (1887-1971).",14533
x,Houtermans,-9.42,87.38,42.68,AA,Friedrich Georg; German physicist (1903-1966).,2562
x,Houzeau,-17.25,-123.89,76.84,AA,Jean-Charles-Hippolyte-Joseph de Lehaie; Belgian astronomer (1820-1888).,2563
x,Hubble,22.29,86.91,81.84,AA,Edwin Powell; American astronomer (1889-1953).,2573
x,Huggins,-41.07,-1.52,65.79,AA,Sir William; British astronomer (1824-1910).,2574
x,Humason,30.73,-56.66,4.34,AA,Milton Lasell; American astronomer (1891-1972).,2580
x,Humboldt,-27.02,80.96,199.46,AA,Wilhelm von; German philologist (1767-1835).,2582
x,Hume,-4.68,90.47,22.3,AA,David; Scottish philosopher (1711-1776).,2583
x,Husband,-40.32,-147.84,31.26,AA,"Rick Douglas; American astronaut, Space Shuttle Columbia Commander (1957-2003). Note: Formerly Borman L",14140
x,Hutton,37.22,168.68,45.17,AA,James; Scottish geologist (1726-1797).,2592
x,Huxley,20.2,-4.54,3.48,AA,Thomas Henry; British biologist (1825-1895).,2594
x,Hyginus,7.76,6.27,8.7,AA,Caius Julius; Spanish astronomer (fl. first century B.C.).,2606
x,Hypatia,-4.25,22.58,38.82,AA,Hypatia of Alexandria; Egyptian mathematician and philosopher (c. 370-415).,2610
x,Ian,25.72,-0.39,1.51,AA,Scottish male name.,2627
x,Ibn Bajja,-86.3,-75.04,11.98,AA,Spanish-Arab astronomer and philosopher (c. 1095-1138).,14534
x,Ibn Battuta,-6.95,50.44,11.51,AA,Abu Abd Allah Mohammed Ibn Abd Allah; Moroccan geographer (1304-1377).,2633
x,Ibn Firnas,6.83,122.3,88.29,AA,"Abbas Ibn Firnas; Spanish-Arab humanitarian, technologist (unkn- A.D. 887).",2634
x,Ibn-Rushd,-11.69,21.71,31.08,AA,Abu al-Walîd Ibn Rushd (Averroës); Spanish-Arab philosopher/doctor (1126-1198).,2636
x,Ibn Yunus,14.14,91.14,59.69,AA,Abul al-Hasan ben Ahmad; Egyptian astronomer (950-1009).,2635
x,Icarus,-5.49,-173.26,93.73,AA,Greek mythical flyer.,2642
x,Ideler,-49.32,22.24,37.77,AA,Christian Ludwig; German astronomer (1766-1846).,2649
x,Idel'son,-81.35,112.69,59.82,AA,Naum Ilich; Soviet astronomer (1885-1951).,2650
,Igor,38.3,-35,0.1,AA,Norse male name Ingvar adopted as Russian name (Lunokhod-1 landing site feature).,15006
x,Il'in,-17.8,-97.68,12.42,AA,N.Ja.; Soviet rocketry scientist (1901-1937). Note: Formerly Hohmann T,2673
x,Ina,18.66,5.3,2.98,AA,Latin female name.,2680
x,Index,26.1,3.7,0.2,LF,"Astronaut-named feature, Apollo 15 site.",2685
x,Ingalls,26.16,-153.34,37.23,AA,Albert Graham; American optician (1888-1958).,2691
x,Inghirami,-47.49,-68.95,94.6,AA,Giovanni; Italian astronomer (1779-1851).,2692
x,Innes,27.85,119.31,42.83,AA,Robert Thornton Ayton; Scottish astronomer (1861-1933).,2696
x,Ioffe,-14.38,-129.16,83.95,AA,"Joffe, Abram Feodorovich; Soviet physicist (1880-1960).",2705
x,Isabel,28.18,-34.07,1.22,AA,Spanish female name.,2722
x,Isaev,-17.57,147.49,94.1,AA,Alexei Mikhailovich; Soviet rocket designer (1908-1971).,2724
x,Isidorus,-7.96,33.5,41.39,AA,St. Isidore of Seville; Spanish astronomer and encyclopaedist (c. 560-636).,2736
x,Isis,18.95,27.48,0.61,AA,"Egyptian female first name. Note: Origin information changed 6/30/2010. Previous origin information was ""Egyptian goddess.""",2739
x,Ivan,26.86,-43.26,3.84,AA,Russian male name. Note: Formerly Prinz B,2759
x,Izsak,-23.32,117.59,30.83,AA,Imre; Hungarian-American astronomer (1929-1965).,2776
x,Jackson,22.05,-163.32,71.38,AA,John; Scottish astronomer (1887-1958).,2781
x,Jacobi,-56.82,11.3,66.28,AA,Karl Gustav Jacob; German mathematician (1804-1851).,2782
x,Jansen,13.55,28.64,24.21,AA,"Janszoon, Zacharias; Dutch optician (1580-c. 1638).",2798
x,Jansky,8.63,89.5,73.77,AA,Karl Guthe; American radio engineer (1905-1950).,2799
x,Janssen,-44.96,40.82,200.65,AA,Pierre Jules César; French astronomer (1824-1907).,2800
x,Jarvis,-35.13,-148.21,41.22,AA,Gregory Bruce; Member of the Challenger crew (1944-1986). Note: Formerly Borman Z,2808
x,Jeans,-55.58,91.51,81.13,AA,Sir James Hopwood; British mathematical physicist (1877-1946).,2814
x,Jehan,20.71,-31.86,4.46,AA,Turkish female name. Note: Formerly Euler K,2816
x,Jenkins,0.37,78.04,37.77,AA,Louise Freeland; American astronomer (1888-1970).,2818
x,Jenner,-42.01,95.98,73.66,AA,Edward; British doctor (1749-1823).,2819
x,Jerik,18.53,27.63,0.63,AA,Scandinavian male name.,2822
x,J. Herschel,62.31,-41.86,154.44,AA,Sir John Frederick William; British astronomer (1792-1871).,2779
x,Joliot,25.79,93.39,172.79,AA,Frederic Joliot-Curie; French physicist; Nobel laureate (1900-1958).,2839
x,Jomo,24.41,2.44,7.36,AA,African male name.,2842
x,José,-12.68,-1.66,1.22,AA,Spanish male name.,2846
x,Joule,27.15,-144.14,97.52,AA,James Prescott; British physicist (1818-1889).,2848
x,Joy,25.01,6.56,5.12,AA,Alfred Harrison; American astronomer (1882-1973).,2851
x,Jules Verne,-34.85,147.28,145.54,AA,French writer (1828-1905).,2856
x,Julienne,26.06,3.13,1.8,AA,French female name.,2858
x,Julius Caesar,9.17,15.21,84.72,AA,"Roman emperor, introduced the Julian calendar (c. 102-44 B.C.).",2859
x,Kaiser,-36.49,6.48,53.15,AA,Frederick; Dutch astronomer (1808-1872).,2889
x,Kamerlingh Onnes,14.72,-116.29,70.03,AA,Heike Kamerlingh Onnes; Dutch physicist; Nobel laureate (1853-1926).,2906
x,Kane,62.99,25.84,54.96,AA,Elisha Kent; American explorer (1820-1857).,2913
x,Kant,-10.62,20.2,30.85,AA,Immanuel; German philosopher (1724-1804).,2919
x,Kao,-6.71,87.81,34.54,AA,Ping-Tse; Taiwanese astronomer (1888-1970).,2922
x,Kapteyn,-10.79,70.59,48.65,AA,Jacobus Cornelis; Dutch astronomer (1851-1922).,2924
x,Karima,-25.93,102.98,3.05,AA,Arabic female name.,2928
x,Karpinskiy,72.61,166.8,91.4,AA,Alexander Petrovich; Soviet geologist (1846-1936).,2934
x,Karrer,-52.06,-142.28,55.56,AA,Paul; Russian/Swiss biochemist; Nobel laureate (1889-1971).,2936
x,Kasper,8.3,122.12,12.39,AA,Polish male name.,2946
x,Kästner,-6.9,78.94,116.07,AA,"Abraham Gotthelf; German mathematician, physicist (1719-1800).",3182
x,Katchalsky,5.91,116.07,32.3,AA,"Katzir-Katchalsky, Aharon; Polish-Israeli chemist (1914-1972).",2953
x,Kathleen,25.34,-0.83,5.37,AA,Irish female name.,2955
x,Kearons,-11.59,-112.92,27.99,AA,William Maybrick; American astronomer (1878-1948).,2974
x,Keeler,-9.78,161.78,158.07,AA,James Edward; American astronomer (1857-1900).,2976
x,Kekulé,16.31,-138.47,94.22,AA,Friedrich August; German chemist (1829-1896).,2979
x,Keldysh,51.23,43.65,32.75,AA,Mstislav Vsevolodovich; Soviet mathematician (1911-1978).,2980
x,Kepínski,28.63,126.72,31.67,AA,Felicjan; Polish astronomer (1885-1966).,2993
x,Kepler,8.12,-38.01,29.49,AA,Johannes; German astronomer (1571-1630).,2990
x,Khvol'son,-14.13,111.87,55.88,AA,Orest Danilovich; Soviet physicist (1852-1934).,3018
x,Kibal'chich,2.72,-147.18,91.67,AA,Nikolaj Ivanovich; Russian rocketry scientist (1853-1881).,3020
x,Kidinnu,35.79,122.95,55.1,AA,Or Cidenas; Babylonian astronomer (unkn-c. 343 B.C.).,3024
x,Kies,-26.31,-22.63,45.54,AA,"Johann; German mathematician, astronomer (1713-1781).",3025
x,Kiess,-6.41,84.11,67.79,AA,Carl Clarence; American astrophysicist (1887-1967).,3026
x,Kimura,-56.82,118.38,27.44,AA,Hisashi; Japanese astronomer (1870-1943).,3033
x,Kinau,-60.75,14.94,41.87,AA,Adolph Gottfried; German selenographer (1814-1887).,3035
x,King,4.96,120.49,76.21,AA,Arthur Scott; American physicist (1876-1957); Edward Skinner; American astronomer (1861-1931).,3037
x,Kira,-17.71,132.83,6.81,AA,Russian female name.,3045
x,Kirch,39.27,-5.62,11.71,AA,Gottfried; German astronomer (1639-1710).,3046
x,Kircher,-67.01,-45.48,71.2,AA,Athanasius; German humanitarian (1601-1680).,3047
x,Kirchhoff,30.3,38.84,24.38,AA,Gustav Robert; German physicist (1824-1887).,3048
x,Kirkwood,68.34,-156.66,68.12,AA,Daniel; American astronomer (1814-1895).,3050
x,Kiva,-8.6,15.5,0.9,LF,"Astronaut-named feature, Apollo 16 site.",3059
x,Klaproth,-69.85,-26.26,121.37,AA,"Martin Heinrich; German chemist, mineralogist (1743-1817).",3061
x,Klein,-11.99,2.53,43.47,AA,Hermann Joseph; German astronomer (1844-1914).,3062
x,Kleymenov,-32.48,-140.36,55.98,AA,Ivan Terent'evich; Soviet rocketry scientist (1898-1938).,3064
x,Klute,36.93,-141.76,77.47,AA,Daniel O'Donnell; American rocketry scientist (1921-1964).,3065
x,Knox-Shaw,5.36,80.19,13.44,AA,Harold; British astronomer (1885-1970).,3067
x,Koch,-42.13,150.33,94.7,AA,Robert; German doctor; Nobel laureate (1843-1910).,3068
x,Kocher,-84.47,-134.02,24.03,AA,"Emil Theodor; Swiss surgeon, Nobel Prize winner 1909 (1841-1917).",14535
x,Kohlschütter,14.24,153.95,56.25,AA,Arnold; German astronomer (1883-1969).,3071
x,Kolhörster,10.79,-115.01,78.78,AA,Werner; German physicist (1887-1946).,3078
,Kolya,38.3,-35,0.1,AA,"Russian male name, diminutive from Greek-derived Nicholas (Lunokhod-1 landing site feature).",15007
x,Komarov,24.59,152.25,80.43,AA,Vladimir Mikhaylovich; Soviet cosmonaut (1927-1967).,3082
x,Kondratyuk,-15.33,115.8,97.97,AA,Yury Vasilyevich; Soviet rocketry scientist (1897-1942).,3083
x,König,-24.23,-24.68,22.86,AA,"Rudolf; Austrian mathematician, astronomer (1865-1927).",3183
x,Konoplev,-28.16,-124.37,27.67,AA,B.T.; Soviet radio engineer (1912-1960). Note: Formerly Ellerman Q,3085
x,Konstantinov,19.56,158.34,68.08,AA,Konstantin Ivanovich; Russian rocketry scientist (1817-1871).,3087
x,Kopff,-17.39,-89.68,40.49,AA,August; German astronomer (1882-1960).,3088
x,Korolev,-4.19,-157.41,423.41,AA,Sergey Pavlovich; Soviet rocketry scientist (1906-1966).,3090
x,Kosberg,-20.19,149.61,14.63,AA,C. A.; Soviet aeronaut (1903-1965).,3094
x,Kostinskiy,14.43,118.85,67.91,AA,Sergey Konstantinovich; Soviet astronomer (1867-1936).,3096
,Kostya,38.3,-35,0.2,AA,Latin-derived male name Konstantin in Russian diminutive form (Lunokhod-1 landing site feature).,15008
x,Kovalevskaya,30.86,-129.44,113.71,AA,Sofya Vasilyevna; Russian mathematician (1850-1891).,3104
x,Koval'skiy,-21.89,101.03,44.97,AA,Marian Albertovich; Russian astronomer (1821-1884). (Spelling changed from Koval'skij.),3105
x,Kozyrev,-46.64,129.59,59.35,AA,Nikolai Alexandrovich; Soviet astronomer (1908-1983). Note: Formerly Carver K,3109
x,Krafft,16.56,-72.72,51.15,AA,"Wolfgang Ludwig; German-Russian astronomer, physicist (1743-1814).",3111
x,Kramarov,-2.29,-98.89,21.05,AA,Grigory Moiseevich; Soviet space scientist (1887-1970). Note: Formerly Lents K,3113
x,Kramers,53.28,-127.98,61.59,AA,Hendrik Anthony; Dutch physicist (1894-1952).,3114
x,Krasnov,-29.93,-79.82,41.17,AA,Aleksander V.; Russian astronomer (1866-1907).,3115
x,Krasovskiy,3.79,-175.63,61.67,AA,Theodosy Nicolaevich; Soviet geodesist (1878-1948).,3117
x,Kreiken,-9.05,84.55,29.37,AA,Egbert Adriaan; Dutch astronomer (1896-1964).,3118
x,Krieger,29.02,-45.61,22.87,AA,Johann Nepomuk; German selenographer (1865-1902).,3120
x,Krogh,9.41,65.69,19.17,AA,"Schack August Steenberg; Danish zoologist, physiologist; Nobel laureate (1874-1949).",3124
x,Krusenstern,-26.3,5.76,46.44,AA,"Adam Johann, Baron Von; Russian explorer (1770-1846).",3127
x,Krylov,35.26,-166.11,49.83,AA,"Aleksei Nikolaevich; Soviet mathematician, mechanical engineer (1863-1945).",3128
x,Kugler,-53.44,104.1,65.87,AA,Franz Xaver; German-Babylonian chronologist (1862-1929).,3137
x,Kuhn,-84.48,-152.48,16.61,AA,"Richard; Austrian chemist, Nobel Prize winner 1938; (1900-1967).",14536
x,Kuiper,-9.78,-22.68,6.28,AA,Gerard Peter; Dutch-American astronomer (1905-1973).,3138
x,Kulik,41.98,-154.63,60.46,AA,Leonid Alekseevich; Soviet mineralogist (1883-1942).,3143
x,Kundt,-11.57,-11.57,10.31,AA,August Adolph Eduard Eberhard; German physicist (1839-1894).,3157
x,Kunowsky,3.22,-32.53,18.27,AA,Georg Karl Friedrich; German astronomer (1786-1846).,3161
x,Kuo Shou Ching,8.1,-134.66,33.48,AA,Chinese astronomer (1231-1316).,3163
x,Kurchatov,38.3,141.74,110.96,AA,Igor' Vasil'evich; Soviet nuclear physicist (1903-1960).,3165
x,La Caille,-23.68,1.08,67.22,AA,Nicholas-Louis De; French astronomer (1713-1762).,3185
x,Lacchini,41.29,-107.83,57.95,AA,Giovanni; Italian astronomer (1884-1967).,3197
x,La Condamine,53.54,-28.22,37.83,AA,"Charles-Marie de; French astronomer, physicist (1701-1774).",3186
x,Lacroix,-37.93,-59.2,36.07,AA,Sylvestre Francois; French mathematician (1765-1843).,3201
x,Lade,-1.33,9.99,58.11,AA,Heinrich Eduard von; German astronomer (1817-1904).,3223
x,Lagalla,-44.48,-22.36,88.78,AA,Giulio Cesare; Italian philosopher (1571-1624).,3228
x,Lagrange,-32.6,-71.45,162.21,AA,Joseph Louis; Italian mathematician (1736-1813).,3233
x,Lalande,-4.46,-8.65,23.54,AA,Joseph Jérôme Le François de; French astronomer (1732-1807).,3245
x,Lallemand,-14.4,-84.21,16.69,AA,Andre; French astronomer (1904-1978). Note: Formerly Kopff A,3246
x,Lamarck,-23.12,-70.06,114.65,AA,Jean Baptiste Pierre Antoine de Monet; French natural historian (1744-1829).,3249
x,Lamb,-42.67,100.94,103.55,AA,"Sir Horace; British mathematician, physicist (1849-1934).",3252
x,Lambert,25.77,-20.99,30.12,AA,"Johann Heinrich; German astronomer, mathematician, physicist (1728-1777).",3253
x,Lamé,-14.76,64.56,84.28,AA,Gabriel; French mathematician (1795-1870).,3261
x,Lamèch,42.79,13.15,12.41,AA,Felix Chemla; French selenographer (1894-1962).,3262
x,Lamont,5.14,23.32,83.23,AA,Johann von; Scottish-born German astronomer (1805-1879).,3256
x,Lampland,-31.17,131.51,63.04,AA,Carl Otto; American astronomer (1873-1951).,3259
x,Landau,42.16,-119.34,218.15,AA,Lev Davidovich; Soviet physicist; Nobel laureate (1908-1968).,3264
x,Lander,-15.34,131.81,40.05,AA,Richard Lemon; British explorer (1804-1834).,3265
x,Landsteiner,31.3,-14.79,6.11,AA,Karl; Austrian-American pathologist; Nobel laureate (1868-1943).,3267
x,Lane,-9.5,132.36,53.76,AA,"Jonathan Homer; American physicist, astrophysicist (1819-1880).",3268
x,Langemak,-9.93,119.45,104.76,AA,Georgij Erikhovich; Soviet rocketry scientist (1898-1938).,3269
x,Langevin,44.17,162.69,57.8,AA,Paul; French physicist (1872-1946).,3270
x,Langley,51.17,-86.05,59.17,AA,"Samuel Pierpont; American astronomer, physicist (1834-1906).",3271
x,Langmuir,-35.85,-128.89,91.5,AA,"Irving; American physicist, chemist; Nobel laureate (1881-1957).",3272
x,Langrenus,-8.86,61.04,131.98,AA,"Langren, Michel Florent van; Belgian selenographer, engineer (c. 1600-1675).",3273
x,Lansberg,-0.31,-26.63,38.75,AA,Philippe van; Belgian astronomer (1561-1632).,3276
x,La Pérouse,-10.67,76.28,80.4,AA,"Jean Francois de Galoup, Comte De La Pérouse; French explorer (1741-1788).",3189
x,Lara,20.4,30.5,0,LF,"Astronaut-named feature, Apollo 17 site.",3279
x,Larmor,31.85,-179.67,99.49,AA,"Sir Joseph; British mathematician, physicist (1857-1942).",3282
x,Lassell,-15.49,-7.9,21.82,AA,William; British astronomer (1799-1880).,3286
x,Last,26.1,3.7,0,LF,"Astronaut-named feature, Apollo 15 site.",3289
x,Laue,28.29,-97.05,89.17,AA,Max Theodor Felix von; German physicist; Nobel laureate (1879-1960).,3297
x,Lauritsen,-27.54,96.31,51.24,AA,Charles Christian; Danish-American physicist (1892-1968).,3303
x,Laveran,-81.8,-159.78,12.52,AA,"Charles Louis Alphonse; French physician, Nobel Prize winner 1907 (1845-1922).",14537
x,Lavoisier,38.17,-81.25,71.01,AA,Antoine Laurent; French chemist (1743-1794).,3307
x,Lawrence,7.35,43.3,24.02,AA,"Ernest Orlando; American physicist; Nobel laureate (1901-1958), and Robert Henry, Jr.; American astronaut (1935-1967).",3308
x,L. Clark,-43.34,-147.7,15.3,AA,"Laurel Blair Salton; American astronaut, Space Shuttle Columbia Mission Specialist (1961-2003).",14143
x,Leakey,-3.19,37.46,12.48,AA,Louis Seymour Bazett; British archaeologist (1903-1972).,3316
x,Leavitt,-44.86,-139.89,69.31,AA,Henrietta Swan; American astronomer (1868-1921).,3319
x,Lebedev,-46.8,107.89,121.8,AA,Pëtr Nikolajevich; Russian physicist (1866-1912).,3320
x,Lebedinskiy,7.84,-164.89,63.39,AA,Aleksandr I.; Soviet astrophysicist (1913-1967).,3322
x,Lebesgue,-5.14,88.97,11.39,AA,Henri Leon; French mathematician (1875-1941).,3323
x,Lee,-30.66,-40.76,41.17,AA,"John; British astronomer, humanitarian (1783-1866).",3328
x,Leeuwenhoek,-29.28,-178.87,125,AA,Antony van; Dutch microscopist (1632-1723).,3329
x,Legendre,-28.92,70.02,78.08,AA,Adrien Marie; French mathematician (1752-1833).,3330
x,Le Gentil,-74.27,-76.02,125.38,AA,Guillaume Hyazinthe; French astronomer (1725-1792).,3311
x,Lehmann,-39.96,-56.17,53.85,AA,Jacob Heinrich Wilhelm; German astronomer (1800-1863).,3331
x,Leibnitz,-38.24,179.35,236.67,AA,"Gottfried Wilhelm; German mathematician, philosopher (1646-1716).",3335
x,Lemaître,-61.36,-149.98,93.7,AA,Georges Henri Joseph Édouard; Belgian mathematician (1894-1966).,3340
x,Le Monnier,26.66,30.5,68.4,AA,"Pierre Charles; French astronomer, physicist (1715-1799).",3312
x,Lenard,85.19,-109.69,47.65,AA,"Philipp Edward Anton; German physicist, 1905 Nobel Prize winner for physics (1862-1947).",14503
x,Lents (Lenz),2.72,-102.3,21.98,AA,Heinrich Friedrich Emil; Russian physicist (1804-1865).,3348
,Leonid,38.3,-35,0.1,AA,Russian male name of Greek origin (Lunokhod-1 landing site feature).,15009
x,Leonov,19.07,148.36,34.04,AA,Aleksey Arkhipovich; Soviet cosmonaut (1934-Live).,3352
x,Lepaute,-33.3,-33.69,16.36,AA,Nicole Reine De La Briere; French astronomer (1723-1788).,3354
x,Letronne,-10.5,-42.49,117.59,AA,Jean Antoine; French archaeologist (1787-1848).,3363
x,Leucippus,29.24,-116.41,57.03,AA,Greek philosopher (unkn-fl. c. 440 B.C.).,3364
x,Leuschner,1.67,-109.05,50.14,AA,Armin Otto; American astronomer (1868-1953).,3366
,Lev,12.69,62.2,0.06,AA,Russian male name of Hebrew origin.,14952
x,Le Verrier,40.33,-20.61,20.52,AA,"Urbain-Jean-Joseph; French astronomer, mathematician (1811-1877).",3313
x,Levi-Civita,-23.34,143.14,108.23,AA,"Tullio; Italian mathematician, physicist (1873-1941).",3367
x,Lewis,-18.51,-114.23,40.32,AA,Gilbert Newton; American chemist (1875-1946).,3369
x,Lexell,-35.78,-4.27,63.7,AA,"Anders Johan; Swedish-Russian mathematician, astronomer (1740-1784).",3370
x,Ley,42.11,154.84,81.05,AA,Willy; German-American rocketry scientist (1906-1969).,3372
x,Licetus,-47.19,6.54,75.42,AA,"Liceti, Fortunio; Italian physicist, philosopher, doctor (1577-1657).",3392
x,Lichtenberg,31.85,-67.72,19.53,AA,Georg Christoph; German physicist (1742-1799).,3393
x,Lick,12.36,52.84,31.63,AA,James; American benefactor (1796-1876).,3394
x,Liebig,-24.35,-48.3,38.96,AA,"Justus, Baron von Liebig; German chemist (1803-1873).",3397
x,Light Mantle,20.2,30.8,4,LF,"Astronaut-named feature, Apollo 17 site.",3398
x,Lilius,-54.6,6.09,61.18,AA,"Luigi Giglio; Italian doctor, philosopher, chronologist (unkn-1576).",3402
x,Linda,30.69,-33.38,1.11,AA,Spanish female name.,3406
x,Lindbergh,-5.41,52.9,13.34,AA,Charles Augustus; American aviator (1902-1974).,3408
x,Lindblad,70.03,-99.22,59.37,AA,Bertil; Swedish astronomer (1895-1965).,3409
x,Lindenau,-32.35,24.77,53.08,AA,Bernhard von; German astronomer (1780-1854).,3410
x,Lindsay,-7,13.01,32.23,AA,Eric M.; Irish astronomer (1907-1974).,3411
x,Linné,27.75,11.8,2.23,AA,Carl von; Swedish botanist (1707-1778).,3413
x,Liouville,2.73,73.57,16.12,AA,Joseph; French mathematician (1809-1882).,3416
x,Lippershey,-25.96,-10.38,6.74,AA,Hans (Jan Lapprey); Dutch optician (unkn-1619).,3417
x,Lippmann,-55.43,-114.32,160.07,AA,Gabriel; French physicist; Nobel laureate (1845-1921).,3418
x,Lipskiy,-2.15,-179.38,91.15,AA,Yurii Naumovich; Soviet selenographer (1909-1978).,3419
x,Litke (Lütke),-16.76,123.12,38.18,AA,Fyodor Petrovich; Russian geographer (1797-1882).,3425
x,Littrow,21.5,31.39,28.52,AA,Johann Josef von; Bohemian astronomer (1781-1840).,3427
x,Lobachevskiy,9.76,113.07,87.26,AA,Nikolay Ivanovich; Russian mathematician (1793-1856).,3439
x,Lockyer,-46.27,36.59,35.08,AA,Sir Joseph Norman; British astrophysicist (1836-1920).,3443
x,Lodygin,-17.42,-146.78,56.11,AA,Aleksandr Nikolaevich; Russian inventor (1847-1923).,3449
x,Loewy,-22.69,-32.85,22.45,AA,Maurice (Moritz); French astronomer (1833-1907).,3450
x,Lohrmann,-0.44,-67.38,31.25,AA,Wilhelm Gotthelf; German selenographer (1796-1840).,3452
x,Lohse,-13.76,60.31,43.34,AA,Oswald; German astronomer (1845-1915).,3453
x,Lomonosov,27.35,98.28,90.69,AA,"Mikhail Vasilievich; Russian poet, scientist, and grammarian (1711-1765).",3462
x,Longomontanus,-49.55,-21.88,145.5,AA,"Christian Sorensen; Danish astronomer, mathematician (1562-1647).",3465
x,Lorentz,34.59,-97.19,378.42,AA,Hendrik Antoon; Dutch physicist; Nobel laureate (1853-1928).,3472
x,Louise,28.49,-34.2,0.64,AA,French female name.,3483
x,Louville,44.12,-46.04,34.81,AA,"Jacques D'Allonville, Chevalier de Louville; French astronomer, mathematician (1671-1732).",3486
x,Love,-6.33,129.17,90.08,AA,"Augustus Edward Hough; British mathematician, geophysicist (1863-1940).",3487
x,Lovelace,82.08,-109.51,57.06,AA,"William Randolph, II; American doctor, space scientist (1907-1965).",3488
x,Lovell,-36.74,-142.47,35.1,AA,"James A., Jr.; American astronaut (1928-Live).",3489
x,Lowell,-12.97,-103.42,62.65,AA,Percival; American astronomer (1855-1916).,3493
x,Lubbock,-3.99,41.79,14.09,AA,"Sir John William; British astronomer, mathematician (1803-1865).",3498
x,Lubiniezky,-17.88,-23.89,42.97,AA,Stanislaus; Polish astronomer (1623-1675).,3499
x,Lucian,14.34,36.78,6.85,AA,Of Samosata; Greek writer (125-190).,3503
x,Lucretius,-8.22,-121.24,64.61,AA,Titus Lucretius Carus; Roman scientific philosopher (c. 94-55 B.C.).,3505
x,Ludwig,-7.72,97.45,23.29,AA,Carl Friedrich Wilhelm; German physiologist (1816-1895).,3508
x,Lundmark,-38.87,152.56,103.44,AA,Knut Emil; Swedish astronomer (1889-1958).,3521
x,Luther,33.2,24.15,9.29,AA,Carl Theodor Robert; German astronomer (1822-1900).,3523
x,Lyapunov,26.43,89.36,67.58,AA,"Aleksandr Mikhailovich; Russian mathematician, engineer (1857-1918).",3526
x,Lyell,13.63,40.56,31.17,AA,Sir Charles; Scottish geologist (1797-1875).,3532
x,Lyman,-64.96,162.47,83.25,AA,Theodore; American physicist (1874-1954).,3534
x,Lyot,-50.47,84.8,150.6,AA,Bernard Ferdinand; French astronomer (1897-1952).,3537
x,Mach,18.13,-149.24,174.97,AA,"Ernst; Austrian physicist, philosopher (1838-1916).",3554
x,Mackin,20.1,30.7,0,LF,"Astronaut-named feature, Apollo 17 site. (Spelling changed from Mackin-Apollo.)",3556
x,Maclaurin,-1.92,67.99,54.33,AA,Colin; Scottish mathematician (1698-1746). (Spelling changed from MacLaurin.),3557
x,Maclear,10.52,20.1,20.34,AA,Sir Thomas; Irish-born South African astronomer (1794-1879).,3558
x,MacMillan,24.2,-7.85,6.88,AA,"William Duncan; American mathematician, astronomer (1871-1948).",3559
x,Macrobius,21.26,45.97,62.79,AA,Ambrosius Aurelius Theodosius; Roman writer (unkn-fl. c. 410).,3560
x,Mädler,-11.04,29.76,27.58,AA,Johann Heinrich; German astronomer (1794-1874).,4091
x,Maestlin,4.9,-40.72,6.82,AA,Michael; German mathematician (1550-1631).,3570
x,Magelhaens,-11.98,44.07,37.2,AA,Fernao De (Ferdinand Magellan); Portuguese explorer (1480-1521).,3578
x,Maginus,-50.03,-5.98,155.58,AA,"Magini, Giovanni Antonio; Italian astronomer, mathematician (1555-1617).",3581
x,Main,80.87,10.41,47.43,AA,Robert; British astronomer (1808-1878).,3595
x,Mairan,41.6,-43.5,39.49,AA,Jean Jacques D'Ortous De; French geophysicist (1678-1771).,3597
x,Maksutov,-40.75,-168.65,83.84,AA,Dmitrij Dmitrievich; Soviet optician (1896-1964).,3602
x,Malapert,-85,11.4,72.38,AA,"Charles; Belgian astronomer, mathematician, philosopher (1581-1630).",3603
x,Mallet,-45.41,54.05,58.92,AA,"Robert; Irish seismologist, engineer (1810-1881).",3610
x,Malyy,22.03,105.56,41.29,AA,Aleksandr L'vovich; Soviet rocketry scientist (1907-1961).,3613
x,Mandel'shtam,5.7,162.39,181.89,AA,Leonid Isaakovich; Soviet physicist (1879-1944).,3625
x,M. Anderson,-41.21,-148.99,16.94,AA,"Michael Phillip; American astronaut, Space Shuttle Columbia Payload Commander (1959-2003).",14137
x,Manilius,14.45,9.07,38.34,AA,Marcus; Roman writer (unkn-c. 50 B.C.).,3631
x,Manners,4.57,19.99,15.05,AA,Russell Henry; British astronomer (1800-1870).,3633
x,Manuel,24.47,11.36,0.57,AA,Spanish male name.,3644
x,Manzinus,-67.51,26.37,95.97,AA,"Manzini, Carlo Antonio; Italian astronomer (1599-1677).",3646
x,Maraldi,19.36,34.8,39.62,AA,"Giovanni Domenico; Italian-born French astronomer, geodesist (1709-1788); Giacomo Filippo; Italian-born French astronomer (1665-1729).",3650
x,Marci,22.23,-167.57,24.47,AA,Jan Marek Marci von Kronland; Czechoslovakian physicist (1595-1667).,3657
x,Marconi,-9.48,145.2,72.88,AA,"Guglielmo; Italian physicist, inventor; Nobel laureate (1874-1937).",3659
x,Marco Polo,15.52,-2.05,28.25,AA,Italian explorer (1254-1324).,3658
x,Marinus,-39.38,76.57,56.55,AA,Of Tyre; Greek geographer (unkn-c. 100).,3712
x,Mariotte,-28.46,-139.06,70.27,AA,Edme; French physicist (1620-1684).,3713
x,Marius,11.9,-50.84,40.09,AA,"Mayer, Simon; German astronomer (1573-1624).",3715
x,Markov,53.43,-62.84,39.92,AA,Aleksandr Vladimirovich; Soviet astrophysicist (1897-1968); Andrei Andreevich; Russian mathematician (1856-1922).,3720
x,Marth,-31.16,-29.35,6.54,AA,Albert; German astronomer (1828-1897).,3724
x,Mary,18.93,27.39,0.53,AA,English form of Hebrew female name.,3731
x,Maskelyne,2.16,30.04,22.42,AA,Nevil; British astronomer (1732-1811).,3740
x,Mason,42.7,30.51,33.33,AA,Charles; British astronomer (1730-1787).,3742
x,Maunder,-14.52,-93.88,53.8,AA,Annie Scott Dill Russell; British astronomer (1868-1947); Edward Walter; British astronomer (1851-1928).,3756
x,Maupertuis,49.7,-27.28,45.49,AA,Pierre Louis Moreau de; French mathematician (1698-1759).,3758
x,Maurolycus,-41.77,13.92,115.35,AA,"Maurolico, Francesco; Italian mathematician (1494-1575).",3760
x,Maury,37.11,39.69,16.58,AA,Matthew Fontaine; American oceanographer (1806-1873); Antonia Caetana de Paiva Pereira; American astronomer (1866-1952).,3761
x,Mavis,29.76,-26.36,1.09,AA,Scottish female name.,3762
x,Maxwell,29.9,98.53,109.24,AA,James Clerk; British physicist (1831-1879).,3765
x,McAdie,2.11,92.22,41,AA,Alexander George; American meteorologist (1863-1943).,3776
x,McAuliffe,-33.24,-149.77,19.11,AA,Sharon Christa Corrigan; civilian school teacher member of the Challenger crew (1948-1986). Note: Formerly Borman Y,3777
x,McClure,-15.32,50.24,23.96,AA,Robert Le Mesurier; British explorer (1807-1873).,3778
x,McCool,-41.28,-146.26,20.47,AA,"William Cameron; American astronaut, Space Shuttle Columbia Pilot (1961-2003).",14141
x,McDonald,30.39,-20.88,6.97,AA,William Johnson; American benefactor (1844-1926); Thomas Logie; Scottish selenographer (1901-1973).,3779
x,McKellar,-15.72,-170.86,50.16,AA,Andrew; Canadian astronomer (1910-1960).,3780
x,McLaughlin,47.01,-92.83,75.29,AA,Dean Benjamin; American astronomer (1901-1965).,3781
x,McMath,16.63,-166.09,88.58,AA,"Francis Charles; American engineer, astronomer (1867-1938); Robert Raynolds; American astronomer (1891-1962).",3783
x,McNair,-35.93,-147.95,32.02,AA,Ronald Ewald; member of the Challenger crew (1950-1986). Note: Formerly Borman A,3785
x,McNally,22.5,-127.65,47.03,AA,Paul Aloysius; American astronomer (1890-1955).,3786
x,Mechnikov,-10.47,-148.99,58.83,AA,Ilya Ilich; Russian-French bacteriologist; Nobel laureate (1845-1916).,3788
x,Mee,-43.63,-35.19,134.11,AA,Arthur Butler Phillips; Scottish astronomer (1860-1926).,3797
x,Mees,13.57,-96.18,51.55,AA,Charles Edward Kenneth; British-born American photographer (1882-1960).,3798
x,Meggers,24.3,122.94,51.16,AA,William Frederick; American physicist (1888-1966).,3802
x,Meitner,-10.87,113.1,87.27,AA,Lise; Austrian physicist (1878-1968).,3807
x,Melissa,8.12,121.78,17.21,AA,Greek female name. Note: Formerly Ibn Firnas Y,3819
x,Mendel,-48.83,-109.86,139.65,AA,Gregor Johann; Austrian biologist (1822-1884).,3835
x,Mendeleev,5.38,141.17,325.13,AA,Dmitri Ivanovich; Russian chemist (1834-1907).,3837
x,Menelaus,16.26,15.93,27.13,AA,"Of Alexandria; Greek geometer, astronomer (c. A.D. 98).",3840
x,Menzel,3.41,36.94,3.44,AA,"Donald Howard; American astrophysicist, Smithsonian researcher (1901-1976).",3846
x,Mercator,-29.25,-26.11,46.32,AA,"Gerard De Kremer (Gerhardus Mercator); Belgian cartographer, geographer, mathematician (1512-1594).",3849
x,Mercurius,46.66,66.07,64.3,AA,Mercury; Roman mythical messenger.,3850
x,Merrill,74.83,-117.45,56.99,AA,Paul Willard; American astronomer (1887-1961).,3860
x,Mersenius,-21.49,-49.34,84.46,AA,"Mersenne, Marin; French mathematician, physicist (1588-1648).",3862
x,Meshcherskiy,12.11,125.53,65.94,AA,Ivan Vsevolodovich; Russian mathematician (1859-1935).,3866
x,Messala,39.31,60.06,122.4,AA,(Ma-Sa-Allah); Jewish astronomer (unkn- c. 815).,3868
x,Messier,-1.9,47.65,13.8,AA,Charles; French astronomer (1730-1817).,3869
x,Metius,-40.42,43.37,83.81,AA,Adriaan Adriaanszoon; Dutch astronomer (1571-1635).,3873
x,Meton,73.57,19.63,124.7,AA,Greek astronomer (unkn-fl. 432 B.C.).,3874
x,Mezentsev,71.77,-129.64,84.51,AA,Yurij Borisovich; Soviet rocket scientist (1929-1965).,3876
x,Michael,25.05,0.21,3.46,AA,English male name.,3880
x,Michelson,6.72,-121.55,123.14,AA,Albert Abraham; German-American physicist; Nobel laureate (1852-1931).,3883
x,Middle Crescent,-3.2,-23.4,0.01,LF,"Astronaut-named feature, Apollo 12 site.",3885
x,Milankovic,76.53,171.35,94.21,AA,Milutin; Yugoslavian astronomer (1879-1958).,3892
x,Milichius,10.01,-30.23,12.19,AA,"Milich, Jacob; German doctor, mathematician, astronomer (1501-1559).",3897
x,Miller,-39.37,0.78,61.37,AA,William Allen; British chemist (1817-1870).,3899
x,Millikan,46.76,121.52,93.97,AA,Robert Andrews; American physicist; Nobel laureate (1868-1953).,3900
x,Mills,8.54,155.74,35.65,AA,Mark Muir; American physicist (1917-1958).,3903
x,Milne,-31,112.78,259.97,AA,"Edward Arthur; British mathematician, astrophysicist (1896-1950).",3904
x,Mineur,24.67,-161.73,72.28,AA,"Henri; French mathematician, astronomer (1899-1954).",3911
x,Minkowski,-56.13,-145.8,107.51,AA,Hermann; German mathematician (1864-1909); Rudolph Leo Bernhard; American astronomer (1895-1976).,3913
x,Minnaert,-67.54,178.57,137.31,AA,"Marcel Gilles Jozef; Dutch astronomer, astrophysicist (1893-1970).",3914
x,Mitchell,49.77,20.17,32.15,AA,Maria; American astronomer (1818-1889).,3932
x,Mitra,17.76,-154.65,97.1,AA,Sisir Kumar; Indian physicist (1890-1963).,3935
x,Möbius,15.63,101.13,48.96,AA,"August Ferdinand; German mathematician, astronomer (1790-1868).",4093
x,Mohorovicic,-18.73,-164.83,49.97,AA,Andrija; Croatian geophysicist (1857-1936). (Spelling changed from Mohoróvicic.),3946
x,Moigno,66.27,28.8,36.83,AA,"Francois Napoleon Marie; French mathematician, physicist (1804-1884).",3947
x,Moiseev,9.44,103.26,61.56,AA,Nikolay Dmitrievich; Soviet astronomer (1902-1955).,3949
x,Moissan,4.77,137.45,22.45,AA,Ferdinand Frederic Henri; French chemist; Nobel laureate (1852-1907).,3950
x,Moltke,-0.59,24.16,6.15,AA,"Helmuth Karl, Graf von; German benefactor (1800-1891).",3957
x,Monge,-19.24,47.54,36.6,AA,Gaspard; French mathematician (1746-1818).,3965
x,Monira,-12.54,-1.73,1.07,AA,Arabic female name.,3968
x,Montanari,-45.83,-20.76,77.05,AA,"Geminiano; Italian astronomer, mathematician (1633-1687).",4001
x,Montgolfier,47.06,-160.08,83.71,AA,Jacques-Étienne; French inventor (1745-1799); Joseph-Michael; French inventor (1740-1810).,4024
x,Moore,37.25,-177.55,52.66,AA,Joseph Haines; American astronomer (1878-1949).,4026
x,Moretus,-70.63,-5.95,114.45,AA,"Moret, Theodore; Belgian mathematician (1602-1667).",4034
x,Morley,-2.82,64.62,13.71,AA,Edward Williams; American chemist (1838-1923).,4038
x,Morozov,4.62,127.33,41.01,AA,Nikolaj Aleksandrovich; Soviet natural scientist (1854-1945).,4040
x,Morse,21.9,-175.29,72.77,AA,Samuel Finley Breese; American inventor (1791-1872).,4043
x,Moseley,20.95,-90.2,88.89,AA,Henry Gwyn Jeffreys; British physicist (1887-1915).,4048
x,Mösting,-0.7,-5.88,24.38,AA,Johan Sigismund von; Danish benefactor (1759-1843).,4094
x,Mouchez,78.38,-26.82,82.78,AA,Ernest Amedee Barthelemy; French astronomer (1821-1892).,4054
x,Moulton,-60.91,97.57,54.7,AA,Forest R.; American astronomer (1872-1952).,4055
x,Müller,-7.64,2.04,23.4,AA,Karl; Czechoslovakian astronomer (1866-1942).,4095
x,Murakami,-23.38,-140.97,44.52,AA,"Harutaro; Japanese physicist, astronomer (1872-1947). Note: Formerly Mariotte Y",4070
x,Murchison,5.07,-0.21,57.83,AA,Sir Roderick Impey; Scottish geologist (1792-1871).,4072
x,Mutus,-63.65,29.93,76.33,AA,"Vincente Mut, or Muth; Spanish astronomer (unkn-1673).",4083
x,Nagaoka,19.51,154.05,50.54,AA,Hantaro; Japanese physicist (1865-1940).,4106
x,Nansen,81.17,95.38,116.9,AA,Fridtjof; Norwegian explorer (1861-1930).,4142
x,Nansen-Apollo,20.1,30.5,0.9,LF,"Astronaut-named feature, Apollo 17 site.",4144
x,Naonobu,-4.7,57.93,32.96,AA,Ajima; Japanese mathematician (c. 1732-1798).,4148
x,Nasireddin,-41.04,0.14,51.99,AA,Nasir-Al-Din (Mohammed Ibn Hassan); Persian astronomer (1201-1274).,4157
x,Nasmyth,-50.49,-56.39,78.37,AA,"James; Scottish engineer, astronomer (1808-1890).",4158
x,Nassau,-24.91,177.34,75.8,AA,Jason John; American astronomer (1892-1965).,4159
x,Natasha,19.98,-31.16,10.98,AA,Russian female name. Note: Formerly Euler P,4163
x,Naumann,35.38,-62.02,9.93,AA,Karl Friedrich; German geologist (1797-1873).,4165
x,Neander,-31.35,39.88,49.22,AA,"Neumann, Michael; German mathematician (1529-1581).",4180
x,Nearch,-58.58,39.01,72.79,AA,Nearchus of Crete; Greek explorer (unkn-fl. 312 B.C.).,4181
x,Necho,-5.25,123.24,36.87,AA,Egyptian ruler (fl. 6th-7th century B.C.).,4182
x,Nefed'ev,-81.07,135.77,52.94,AA,Anatoly Alexeevich; Russian astronomer (1910-1976).,14538
x,Neison,68.21,25.02,51.03,AA,"(Neville), Edmund; British astronomer, selenographer (1849-1940).",4196
x,Neper,8.76,84.58,144.32,AA,John; Scottish mathematician (1550-1617).,4208
x,Nernst,35.57,-94.64,121.52,AA,Walther Hermann; German physical chemist; Nobel laureate (1864-1941).,4217
x,Neujmin,-26.68,125.17,97.03,AA,Grigorij Nikolaevich; Soviet astronomer (1885-1946).,4223
x,Neumayer,-71.16,70.92,84.38,AA,"Georg Balthasar von; German meteorologist, hydrographer (1826-1909).",4226
x,Newcomb,29.76,43.67,39.8,AA,Simon; Canadian-American astronomer (1835-1909).,4232
x,Newton,-76.52,-17.44,83.85,AA,"Sir Isaac; British mathematician, physicist, astronomer (1643-1727).",4235
x,Nicholson,-26.22,-85.21,38.08,AA,Seth Barnes; American astronomer (1891-1963).,4248
x,Nicolai,-42.47,25.87,40.54,AA,Friedrich Bernhard Gottfried; German astronomer (1793-1846).,4251
x,Nicollet,-21.95,-12.5,14.73,AA,Joseph Nicholas; French astronomer (1786-1843).,4253
x,Nielsen,31.8,-51.76,9.64,AA,Axel Vilfrid; Danish astronomer (1902-1970); Harald Herborg; American physicist (1903-1973).,4256
x,Niepce,72.2,-120.15,59.69,AA,"Joseph-Nicéphore; French physicist, photographer (1765-1833). (Spelling changed from Niépce.)",4257
x,Nijland,33.19,134.17,35.46,AA,Albertus Antonie; Dutch astronomer (1868-1936).,4265
x,Nikolaev,35.08,151.28,42.67,AA,Andriyan Grigoryevich; Soviet cosmonaut (1929-2004).,4268
,Nikolya,38.3,-35,0.1,AA,Russian diminutive form of the Greek-derived male name Nicholas (Lunokhod-1 landing site feature).,15010
x,Nishina,-44.57,-170.8,62.13,AA,Yoshio; Japanese physicist (1890-1951).,4310
x,Nobel,14.73,-101.39,50.87,AA,Alfred Bernhard; Swedish inventor (1833-1896).,4320
x,Nobile,-85.28,53.27,79.27,AA,Umberto; Italian artic explorer (1885-1978). Note: Formerly Scott A,4321
x,Nobili,0.17,75.95,41.79,AA,Leopoldo; Italian physicist (1784-1835).,4322
x,Nöggerath,-48.82,-45.84,32.12,AA,"Johann Jakob; German geologist, mineralogist, seismologist (1788-1877).",4379
x,Nonius,-34.9,3.79,70.61,AA,Pedro Nuñez Salaciense; Portuguese mathematician (1502-1578).,4330
x,Norman,-11.78,-30.35,9.87,AA,Robert; British natural scientist (unkn-fl. c. 1590).,4336
x,North Complex,26.2,3.6,2,LF,"Astronaut-named feature, Apollo 15 site.",4340
x,North Massif,20.4,30.8,14,LF,"Astronaut-named feature, Apollo 17 site.",4341
x,North Ray,-8.8,15.5,1,LF,"Astronaut-named feature, Apollo 16 site.",4342
x,Nöther (Noether),66.35,-114.18,64.8,AA,Emmy; German mathematician (1882-1935).,4380
x,Numerov,-70.52,-162.2,105.39,AA,Boris Vasilievich; Soviet astronomer (1891-1941).,4354
x,Nunn,4.62,91.15,18.49,AA,Joseph; American engineer (1905-1968).,4359
x,Nusl,32.19,167.45,60.58,AA,Frantisek; Czechoslovakian astronomer (1867-1925). (Spelling changed from Nüsl.),4368
x,Oberth,62.49,154.84,49.52,AA,Hermann; Austrian space scientist (1894-1989). Note: Formerly Yamamoto W,4387
x,Obruchev,-38.67,162.43,72.23,AA,Vladimir Afanasievich; Soviet geologist (1863-1956).,4390
x,O'Day,-30.42,157.29,70.41,AA,Marcus; American physicist (1897-1961).,4540
x,Oenopides,57.13,-64.2,73.47,AA,"Of Chios; Greek astronomer, geometrician (500(?)-430 B.C.).",4408
x,Oersted,43.09,47.25,42.28,AA,"Hans Christian; Danish physicist, chemist (1777-1851).",4410
x,Ohm,18.32,-113.78,61.75,AA,Georg Simon; German physicist (1789-1854).,4417
x,Oken,-43.76,76.09,78.67,AA,"(Okenfuss), Lorenz; German biologist, physiologist (1779-1851).",4424
x,Olbers,7.3,-76.14,73.02,AA,"Heinrich Wilhelm Matthäus; German astronomer, doctor (1758-1840).",4432
x,Olcott,20.57,117.79,79.94,AA,William Tyler; American astronomer (1873-1936).,4433
x,Old Nameless,-3.7,-17.5,0.1,LF,"Astronaut-named feature, Apollo 14 site.",4434
x,Olivier,58.72,138.44,78.45,AA,Charles Pollard; American astronomer (1884-1975).,4442
x,Omar Khayyam,58.21,-102.22,68.64,AA,"Al-Khayyami; Persian mathematician, astronomer, poet (c. 1048-c. 1131).",4456
x,Onizuka,-36.38,-149.79,26.88,AA,Ellison Shoji; member of the Challenger crew (1946-1986).,4468
x,Opelt,-16.32,-17.64,48.73,AA,"Friedrich Wilhelm; German astronomer (1794-1863), Otto Moritz; German astronomer (1829-1912).",4472
x,Oppenheimer,-35.32,-166.03,201.16,AA,J. (Julius) Robert; American physicist (1904-1967).,4480
